unitid,school_name,state_abbr,city,county_name,county_fips,latitude,longitude,urban_centric_locale,inst_control,sector,institution_level,degree_granting,offering_undergrad,offering_grad,inst_size,inst_system_flag,inst_system_name,cbsa,cbsa_type,csa,cc_basic_2021,cc_instruc_undergrad_2021,cc_instruc_grad_2021,cc_undergrad_2021,cc_enroll_2021,cc_size_setting_2021,url_school,url_application,url_fin_aid
100654,Alabama A & M University,AL,Normal,Madison County,01089,34.783368,-86.568502,12,1,1,4,1,1,1,3,0,-2,26620,1,290,18,16,18,10,4,14,www.aamu.edu/,https://www.aamu.edu/admissions-aid/undergraduate-admissions/apply-today.html,https://www.aamu.edu/admissions-aid/financial-aid/
100663,University of Alabama at Birmingham,AL,Birmingham,Jefferson County,01073,33.505697,-86.799345,12,1,1,4,1,1,1,5,1,The University of Alabama System,13820,1,142,15,14,14,9,5,15,https://www.uab.edu/,https://www.uab.edu/admissions/apply,https://www.uab.edu/cost-aid/
100690,Amridge University,AL,Montgomery,Montgomery County,01101,32.362609,-86.17401,12,2,2,4,1,1,1,1,0,-2,33860,1,388,20,20,18,5,6,6,https://www.amridgeuniversity.edu/,https://www.amridgeuniversity.edu/myamridge/,https://www.amridgeuniversity.edu/financialaid/
100706,University of Alabama in Huntsville,AL,Huntsville,Madison County,01089,34.724557,-86.640449,12,1,1,4,1,1,1,3,1,The University of Alabama System,26620,1,290,15,17,17,15,4,13,www.uah.edu/,register.uah.edu/,finaid.uah.edu/
100724,Alabama State University,AL,Montgomery,Montgomery County,01101,32.364317,-86.295677,12,1,1,4,1,1,1,2,0,-2,33860,1,388,17,13,18,10,3,14,www.alasu.edu/,www.alasu.edu/admissions/undergrad-admissions/index.aspx,www.alasu.edu/undergraduate/expensesandfinancialaid/expenses-and-financial-aid
100733,University of Alabama System Office,AL,Tuscaloosa,Tuscaloosa County,01125,33.207015,-87.529594,13,1,0,4,1,1,1,-2,1,The University of Alabama System,46220,1,-2,-2,-2,-2,-2,-2,-2,www.uasystem.edu/, , 
100751,The University of Alabama,AL,Tuscaloosa,Tuscaloosa County,01125,33.211875,-87.545978,13,1,1,4,1,1,1,5,1,The University of Alabama System,46220,1,-2,15,17,15,12,4,16,www.ua.edu/,apply.ua.edu/,financialaid.ua.edu/
100760,Central Alabama Community College,AL,Alexander City,Tallapoosa County,01123,32.92478,-85.945266,32,1,4,2,1,1,0,2,1,Alabama Community College System,10760,2,388,5,2,0,1,1,2,www.cacc.edu/,https://www.cacc.edu/admissions/apply/,https://www.cacc.edu/financial-aid/
100812,Athens State University,AL,Athens,Limestone County,01083,34.806793,-86.964698,31,1,1,4,1,1,1,2,0,-2,26620,1,290,22,16,6,5,3,9,www.athens.edu/,www.athens.edu/apply,www.athens.edu/financial-aid/
100830,Auburn University at Montgomery,AL,Montgomery,Montgomery County,01101,32.36736,-86.177544,12,1,1,4,1,1,1,3,1,Auburn University,33860,1,388,18,16,4,7,4,13,www.aum.edu/,www.aum.edu/apply#apply-now-back-btn-row,www.aum.edu/admissions/scholarships-and-financial-aid/financial-aid
100858,Auburn University,AL,Auburn,Lee County,01081,32.599378,-85.488258,13,1,1,4,1,1,1,5,1,Auburn University,12220,1,194,15,17,14,14,4,15,www.auburn.edu/,www.auburn.edu/admissions/,www.auburn.edu/administration/business-finance/finaid/
100937,Birmingham-Southern College,AL,Birmingham,Jefferson County,01073,33.513774,-86.850552,12,2,2,4,1,1,0,1,0,-2,13820,1,142,21,9,0,12,2,11,www.bsc.edu/,https://www.bsc.edu/admission/apply.html,https://www.bsc.edu/fp/index.html
101028,Chattahoochee Valley Community College,AL,Phenix City,Russell County,01113,32.42391,-85.031485,41,1,4,2,1,1,0,2,1,Alabama Community College System,17980,1,194,4,2,0,2,1,2,https://www.cv.edu/,https://chattahoocheevalley.force.com/apply/TX_SiteLogin?startURL=%2Fapply%2FTargetX_Portal__PB,https://www.cv.edu/financial-aid/
101116,South University-Montgomery,AL,Montgomery,Montgomery County,01101,32.342684,-86.216488,12,3,3,4,1,1,1,1,1,South University - Member LLC,33860,1,388,22,20,7,7,4,6,www.southuniversity.edu/,www.southuniversity.edu/admissions/admission-info/applying,www.southuniversity.edu/admissions/financial-aid
101143,Enterprise State Community College,AL,Enterprise,Coffee County,01031,31.297496,-85.836956,32,1,4,2,1,1,0,2,1,Alabama Community College System,21460,2,-2,2,1,0,2,1,2,www.escc.edu/,https://www.escc.edu/admissions/,www.escc.edu/admissions/financial-aid-admissions/
101161,Coastal Alabama Community College,AL,Bay Minette,Baldwin County,01003,30.851343,-87.778193,32,1,4,2,1,1,0,3,1,Alabama Community College System,19300,1,380,4,2,0,2,1,3,www.coastalalabama.edu/,www.coastalalabama.edu/apply/,www.coastalalabama.edu/financial_aid/
101189,Faulkner University,AL,Montgomery,Montgomery County,01101,32.384181,-86.21641,12,2,2,4,1,1,1,2,0,-2,33860,1,388,18,19,16,7,5,10,www.faulkner.edu/,applynow.myfaulkner.org/inquiryform,www.faulkner.edu/undergrad/tuition-financial-aid/
101240,Gadsden State Community College,AL,Gadsden,Etowah County,01055,33.994001,-85.991438,13,1,4,2,1,1,0,2,1,Alabama Community College System,23460,1,-2,7,3,0,2,1,3,www.gadsdenstate.edu/,https://www.gadsdenstate.edu/admissions-aid/apply.cms,www.gadsdenstate.edu/admissions-aid/financial-aid.cms
101277,New Beginning College of Cosmetology,AL,Albertville,Marshall County,01095,34.27871,-86.196931,32,3,9,1,0,1,0,1,0,-2,10700,2,-2,-2,-2,-2,-2,-2,-2,www.nbccosmetology.com/, , 
101286,George C Wallace Community College-Dothan,AL,Dothan,Dale County,01045,31.315274,-85.465836,13,1,4,2,1,1,0,2,1,Alabama Community College System,37120,2,222,7,3,0,1,1,3,www.wallace.edu/,www.wallace.edu/admissions/,www.wallace.edu/financial-aid/
101295,George C Wallace State Community College-Hanceville,AL,Hanceville,Cullman County,01043,34.072439,-86.781935,32,1,4,2,1,1,0,3,1,Alabama Community College System,18980,2,142,7,3,0,2,1,3,https://www.wallacestate.edu/,https://www.wallacestate.edu/register-now/index.html,https://www.wallacestate.edu/financial-aid/index.html
101301,George C Wallace State Community College-Selma,AL,Selma,Dallas County,01047,32.445917,-87.013294,32,1,4,2,1,1,0,2,1,Alabama Community College System,42820,2,388,5,2,0,1,1,2,https://www.wccs.edu/,https://www.wccs.edu/apply,https://www.wccs.edu/financial-aid
101365,Herzing University-Birmingham,AL,Birmingham,Jefferson County,01073,33.468466,-86.832465,21,2,2,4,1,1,1,1,1,"Herzing University, LTD.",13820,1,142,26,19,2,5,3,6,https://www.herzing.edu/,https://www.herzing.edu/,https://www.herzing.edu/
101435,Huntingdon College,AL,Montgomery,Montgomery County,01101,32.351034,-86.284366,12,2,2,4,1,1,1,1,0,-2,33860,1,388,22,15,0,10,2,8,www.huntingdon.edu/,www.huntingdon.edu/admission-aid/traditional-admission/,www.huntingdon.edu/admission-aid/student-financial-services/
101453,Heritage Christian University,AL,Florence,Lauderdale County,01077,34.856153,-87.663051,13,2,2,4,1,1,1,1,0,-2,22520,1,-2,24,18,3,5,5,6,www.hcu.edu/,www.hcu.edu/admissions/apply-now/,www.hcu.edu/admission-aid/financial-aid/
101462,J. F. Drake State Community and Technical College,AL,Huntsville,Madison County,01089,34.771858,-86.572885,12,1,4,2,1,1,0,1,1,Alabama Community College System,26620,1,290,8,3,0,1,1,1,https://www.drakestate.edu/,https://drakestate.force.com/apply/TX_SiteLogin?startURL=%2Fapply%2FTargetX_Portal__PB,https://www.drakestate.edu/admissions/financial-aid
101471,J F Ingram State Technical College,AL,Deatsville,Elmore County,01051,32.582312,-86.392369,21,1,4,2,1,1,0,1,1,Alabama Community College System,33860,1,388,-2,-2,-2,-2,-2,-2,www.istc.edu/, , 
101480,Jacksonville State University,AL,Jacksonville,Calhoun County,01015,33.822938,-85.765321,23,1,1,4,1,1,1,3,0,-2,11500,1,-2,18,16,4,11,4,13,www.jsu.edu/,www.jsu.edu/undergraduate/apply/index.html,www.jsu.edu/finaid/
101505,Jefferson State Community College,AL,Birmingham,Jefferson County,01073,33.652535,-86.707233,12,1,4,2,1,1,0,3,1,Alabama Community College System,13820,1,142,8,3,0,1,1,3,www.jeffersonstate.edu/,www.jeffersonstate.edu/admissions/application-types-2/,www.jeffersonstate.edu/financial-aid/
101514,John C Calhoun State Community College,AL,Tanner,Limestone County,01083,34.645844,-86.949674,41,1,4,2,1,1,0,3,1,Alabama Community College System,26620,1,290,5,2,0,1,1,3,https://calhoun.edu/,https://calhoun.edu/student-services/calhoun-admissions-records/5-simple-steps/,https://calhoun.edu/student-services/financial-aid/
101569,Lawson State Community College,AL,Birmingham,Jefferson County,01073,33.450814,-86.888844,12,1,4,2,1,1,0,2,1,Alabama Community College System,13820,1,142,4,2,0,2,1,2,www.lawsonstate.edu/,www.lawsonstate.edu/admissions_records/admissions_information/admission_procedures_for_all_students.aspx,www.lawsonstate.edu/financial_aid.aspx
101587,University of West Alabama,AL,Livingston,Sumter County,01119,32.588132,-88.186329,43,1,1,4,1,1,1,3,0,-2,-2,-2,-2,18,13,4,7,6,13,www.uwa.edu/,https://www.uwa.edu/apply,https://www.uwa.edu/admissions/undergraduate/financialaid
101602,Lurleen B Wallace Community College,AL,Andalusia,Covington County,01039,31.322947,-86.452262,41,1,4,2,1,1,0,2,1,Alabama Community College System,-2,-2,-2,5,2,0,2,1,2,https://www.lbwcc.edu/,https://lbwallace.force.com/apply/TX_SiteLogin?startURL=%2Fapply%2FTargetX_Portal__PB,https://www.lbwcc.edu/future-students/financial-aid
101648,Marion Military Institute,AL,Marion,Perry County,01105,32.623734,-87.322041,43,1,4,2,1,1,0,1,1,Alabama Community College System,-2,-2,-2,1,1,0,4,1,1,www.marionmilitary.edu/,marionmilitary.force.com/apply/TX_SiteLogin?startURL=%2Fapply%2FTargetX_Portal__PB,marionmilitary.edu/admissions/financial-aid/
101675,Miles College,AL,Fairfield,Jefferson County,01073,33.482442,-86.908751,21,2,2,4,1,1,0,2,0,-2,13820,1,142,22,15,0,10,2,11,www.miles.edu/,https://myexperience.miles.edu/register.asp,https://www.miles.edu/office-financial-aid
101693,University of Mobile,AL,Mobile,Mobile County,01097,30.793247,-88.128934,41,2,2,4,1,1,1,2,0,-2,33660,1,380,20,13,8,13,4,11,www.umobile.edu/,umobile.edu/apply/,https://umobile.edu/financial-aid/
101709,University of Montevallo,AL,Montevallo,Shelby County,01117,33.10625,-86.865099,21,1,1,4,1,1,1,2,0,-2,13820,1,142,19,13,6,11,3,11,www.montevallo.edu/,https://www.montevallo.edu/admissions/,https://www.montevallo.edu/admissions-aid/
101736,Northwest-Shoals Community College,AL,Muscle Shoals,Colbert County,01033,34.739788,-87.678089,13,1,4,2,1,1,0,2,1,Alabama Community College System,22520,1,-2,8,3,0,1,1,2,https://www.nwscc.edu/,www.nwscc.edu/about-nw-scc/college-departments/student-services/admissions/apply-online,https://www.nwscc.edu/about-nw-scc/college-departments/student-services/financial-aid
101879,University of North Alabama,AL,Florence,Lauderdale County,01077,34.80731,-87.680407,13,1,1,4,1,1,1,3,0,-2,22520,1,-2,18,16,7,11,4,13,www.una.edu/,https://www.applyweb.com/aw?una,www.una.edu/financial-aid/index.html
101897,Northeast Alabama Community College,AL,Rainsville,Jackson County,01071,34.545471,-85.911664,42,1,4,2,1,1,0,2,1,Alabama Community College System,42460,2,497,5,2,0,1,1,2,https://www.nacc.edu/,https://northeastalabama.force.com/apply/TX_SiteLogin?startURL=%2Fapply%2FTargetX_Portal__PB,https://www.nacc.edu/admission-financial-aid/financial-aid
101912,Oakwood University,AL,Huntsville,Madison County,01089,34.756344,-86.652705,12,2,2,4,1,1,1,2,0,-2,26620,1,290,21,13,3,10,3,11,https://www2.oakwood.edu/,https://my.oakwood.edu/ICS/Admissions/,www2.oakwood.edu/financial-aid/
101994,Reid State Technical College,AL,Evergreen,Conecuh County,01035,31.460265,-86.964797,41,1,4,2,1,1,0,1,1,Alabama Community College System,-2,-2,-2,7,3,0,1,1,1,www.rstc.edu/,reidstate.force.com/apply/TX_SiteLogin?startURL=%2Fapply%2FTargetX_Portal__PB,https://www.rstc.edu/financialaid
102030,Bishop State Community College,AL,Mobile,Mobile County,01097,30.693972,-88.056982,12,1,4,2,1,1,0,2,1,Alabama Community College System,33660,1,380,8,3,0,1,1,2,www.bishop.edu/,https://www.bishop.edu/new-students/apply-now,https://www.bishop.edu/financial-affairs/office-of-financial-aid/
102049,Samford University,AL,Birmingham,Jefferson County,01073,33.464128,-86.791799,21,2,2,4,1,1,1,3,0,-2,13820,1,142,17,16,12,12,5,14,www.samford.edu/,www.samford.edu/admission/apply,www.samford.edu/departments/financial-services/
102058,Selma University,AL,Selma,Dallas County,01047,32.420387,-87.032392,32,2,2,4,1,1,1,1,0,-2,42820,2,388,-2,-2,-2,-2,-2,-2,https://selmauniversity.edu/, , 
102067,Shelton State Community College,AL,Tuscaloosa,Tuscaloosa County,01125,33.120531,-87.56148,13,1,4,2,1,1,0,2,1,Alabama Community College System,46220,1,-2,8,3,0,2,1,3,www.sheltonstate.edu/,www.sheltonstate.edu/admissions-financial-aid/becoming-a-student/,www.sheltonstate.edu/admissions-financial-aid/financial-aid/
102076,Snead State Community College,AL,Boaz,Marshall County,01095,34.201495,-86.169897,32,1,4,2,1,1,0,2,1,Alabama Community College System,10700,2,-2,3,1,0,2,1,2,www.snead.edu/,snead.edu/admissions,snead.edu/tuition-aid/
102094,University of South Alabama,AL,Mobile,Mobile County,01097,30.696033,-88.178711,12,1,1,4,1,1,1,4,0,-2,33660,1,380,16,16,18,13,5,16,www.southalabama.edu/,www.southalabama.edu/departments/admissions/applytousa.html,www.southalabama.edu/departments/finaid/
102234,Spring Hill College,AL,Mobile,Mobile County,01097,30.694751,-88.138199,12,2,2,4,1,1,1,2,0,-2,33660,1,380,22,13,7,12,3,11,https://www.shc.edu/,https://www.shc.edu/admissions-aid/admissions/apply/,https://www.shc.edu/admissions-aid/tuition-financial-aid/
102270,Stillman College,AL,Tuscaloosa,Tuscaloosa County,01125,33.200006,-87.585278,13,2,2,4,1,1,0,1,0,-2,46220,1,-2,22,12,0,13,2,8,https://stillman.edu/,https://stillmancollege.liaisoncas.com/applicant-ux/#/login,https://stillman.edu/admissions/financial-aid/
102298,Talladega College,AL,Talladega,Talladega County,01121,33.433472,-86.112704,32,2,2,4,1,1,1,1,0,-2,45180,2,142,22,12,3,11,3,11,www.talladega.edu/,www.talladega.edu/apply-for-admissions/,https://www.talladega.edu/financial-aid/
102313,H Councill Trenholm State Community College,AL,Montgomery,Montgomery County,01101,32.350109,-86.343057,12,1,4,2,1,1,0,2,1,Alabama Community College System,33860,1,388,7,3,0,2,1,2,www.trenholmstate.edu/,trenholmstate.force.com/apply/TX_SiteLogin?startURL=%2Fapply%2FTargetX_Portal__PB,www.trenholmstate.edu/future-students/financial-aid/
102368,Troy University,AL,Troy,Pike County,01109,31.799583,-85.95802,33,1,1,4,1,1,1,4,0,-2,45980,2,-2,18,13,13,7,4,15,www.troy.edu/,www.troy.edu/applications-admissions/index.html,www.troy.edu/scholarships-costs-aid/financial-aid/index.html
102377,Tuskegee University,AL,Tuskegee,Macon County,01087,32.4309,-85.708492,32,2,2,4,1,1,1,2,0,-2,-2,-2,-2,19,16,17,10,4,11,www.tuskegee.edu/,www.applyweb.com/apply/tusk/,https://www.tuskegee.edu/admissions-aid
102395,United States Sports Academy,AL,Daphne,Baldwin County,01003,30.639329,-87.91163,13,2,2,4,1,1,1,1,0,-2,19300,1,380,32,20,8,5,6,6,www.ussa.edu/,https://ussa.edu/admissions/apply/,https://ussa.edu/admissions/financial-aid/
102429,Bevill State Community College,AL,Jasper,Walker County,01127,33.836929,-87.266406,32,1,4,2,1,1,0,2,1,Alabama Community College System,27530,2,142,8,3,0,1,1,2,www.bscc.edu/,https://www.bscc.edu/students/apply-online,www.bscc.edu/students/financial-aid
102553,University of Alaska Anchorage,AK,Anchorage,Anchorage Municipality,02020,61.190163,-149.82619,11,1,1,4,1,1,1,4,1,University of Alaska System of Higher Education,11260,1,-2,18,16,16,5,3,12,www.uaa.alaska.edu/,uaonline.alaska.edu/,www.uaa.alaska.edu/financialaid/
102580,Alaska Bible College,AK,Palmer,Matanuska-Susitna Borough,02170,61.598553,-149.111972,32,2,2,4,1,1,0,1,0,-2,11260,1,-2,24,18,0,7,2,7,www.akbible.edu/,www.akbible.edu/admissions/degree-program-application/,www.akbible.edu/admissions/tuition-aid/financial-aid/
102614,University of Alaska Fairbanks,AK,Fairbanks,Fairbanks North Star Borough,02090,64.85756,-147.823146,23,1,1,4,1,1,1,3,1,University of Alaska System of Higher Education,21820,1,-2,16,14,15,5,4,12,www.uaf.edu/,uaf.edu/admissions/apply/#now,www.uaf.edu/finaid/
102632,University of Alaska Southeast,AK,Juneau,Juneau City and Borough,02110,58.384846,-134.638255,33,1,1,4,1,1,1,2,1,University of Alaska System of Higher Education,27940,2,-2,19,16,9,5,4,6,www.uas.alaska.edu/,uas.alaska.edu/apply/steps/,www.uas.alaska.edu/financial_aid/
102669,Alaska Pacific University,AK,Anchorage,Anchorage Municipality,02020,61.190968,-149.804168,11,2,2,4,1,1,1,1,0,-2,11260,1,-2,22,16,7,11,5,7,www.alaskapacific.edu/,https://applicant.alaskapacific.edu/undergraduate/login.asp,www.alaskapacific.edu/apply/financial-aid/
102711,Alaska Vocational Technical Center,AK,Seward,Kenai Peninsula Borough,02122,60.110626,-149.444487,43,1,7,1,0,1,0,1,0,-2,-2,-2,-2,-2,-2,-2,-2,-2,-2,www.avtec.edu/,www.avtec.edu/, 
102845,Charter College,WA,Vancouver,Clark County,53011,45.617798,-122.494766,12,3,3,4,1,1,0,2,1,Prospect Education,38900,1,440,23,5,0,10,2,9,https://chartercollege.edu/,https://chartercollege.edu/,https://chartercollege.edu/
103501,Alaska Career College,AK,Anchorage,Anchorage Municipality,02020,61.181443,-149.856954,11,3,6,2,1,1,0,1,0,-2,11260,1,-2,13,4,0,4,1,1,www.alaskacareercollege.edu/,www.alaskacareercollege.edu/,www.alaskacareercollege.edu/
103529,University of Alaska System of Higher Education,AK,Fairbanks,Fairbanks North Star Borough,02090,64.857516,-147.848969,23,1,0,4,1,1,1,-2,1,University of Alaska System of Higher Education,21820,1,-2,-2,-2,-2,-2,-2,-2,www.alaska.edu/, , 
103741,Empire Beauty School-Tucson,AZ,Tucson,Pima County,04019,32.235657,-110.927187,11,3,9,1,0,1,0,1,1,EEG Inc.,46060,1,536,-2,-2,-2,-2,-2,-2,www.empire.edu/,www.empire.edu/apply-now,www.empire.edu/
103893,Carrington College-Phoenix North,AZ,Phoenix,Maricopa County,04013,33.565758,-112.104601,11,3,6,2,1,1,0,2,1,San Joaquin Valley College Inc.,38060,1,429,10,4,0,4,1,2,https://carrington.edu/, ,https://carrington.edu/financial-aid/
103909,Carrington College-Mesa,AZ,Mesa,Maricopa County,04013,33.39248,-111.853218,11,3,6,2,1,1,0,1,1,San Joaquin Valley College Inc.,38060,1,429,10,4,0,4,1,2,https://carrington.edu/, ,https://carrington.edu/financial-aid/
103927,Carrington College-Tucson,AZ,Tucson,Pima County,04019,32.224391,-110.983056,11,3,6,2,1,1,0,1,1,San Joaquin Valley College Inc.,46060,1,536,10,4,0,4,1,1,https://carrington.edu/, ,https://carrington.edu/financial-aid/
103954,Arizona Academy of Beauty,AZ,Tucson,Pima County,04019,32.237253,-110.872305,11,3,9,1,0,1,0,1,0,-2,46060,1,536,-2,-2,-2,-2,-2,-2,www.arizonaacademy.com/,www.arizonaacademy.com/,www.arizonaacademy.com/
103963,Miller-Motte College-Arizona Automotive Institute,AZ,Glendale,Maricopa County,04013,33.537249,-112.157344,21,3,6,2,1,1,0,1,1,STVT-AAI Education Inc.,38060,1,429,-2,-2,-2,-2,-2,-2,www.aai.edu/, ,www.aai.edu/student-financial-aid
104090,Brookline College-Phoenix,AZ,Phoenix,Maricopa County,04013,33.566102,-112.112473,11,3,3,4,1,1,1,1,1,"Brookline College, LLC",38060,1,429,26,18,3,11,3,9,www.brooklinecollege.edu/,https://brooklinecollege.edu/application/,brooklinecollege.edu/financial-aid/
104151,Arizona State University Campus Immersion,AZ,Tempe,Maricopa County,04013,33.417721,-111.934383,12,1,1,4,1,1,1,5,1,Arizona Board of Regents,38060,1,429,15,14,15,13,4,16,www.asu.edu/,https://webapp4.asu.edu/uga_admissionsapp/,https://students.asu.edu/contact/financialaid
104160,Arizona Western College,AZ,Yuma,Yuma County,04027,32.689306,-114.495968,13,1,4,2,1,1,0,3,0,-2,49740,1,-2,2,1,0,1,1,3,https://www.azwestern.edu/,https://azwestern.elluciancrmrecruit.com/Apply/Account/Login?ReturnUrl=%2fApply,https://www.azwestern.edu/enrollment/financial-aid
104179,University of Arizona,AZ,Tucson,Pima County,04019,32.232672,-110.950815,11,1,1,4,1,1,1,5,1,Arizona Board of Regents,46060,1,536,15,14,14,13,4,15,https://www.arizona.edu/,https://slate.admissions.arizona.edu/apply,https://financialaid.arizona.edu/
104346,Central Arizona College,AZ,Coolidge,Pinal County,04021,32.957092,-111.652501,41,1,4,2,1,1,0,2,0,-2,38060,1,429,2,1,0,1,1,3,www.centralaz.edu/,centralaz.edu/admission-re-direct/,centralaz.edu/admissions/paying-for-college/financial-aid/
104391,Charles of Italy Beauty College,AZ,Lake Havasu City,Mohave County,04015,34.477485,-114.332686,13,3,9,1,0,1,0,1,0,-2,29420,1,-2,-2,-2,-2,-2,-2,-2,www.charlesofitaly.edu/,www.charlesofitaly.edu/,www.charlesofitaly.edu/
104425,Cochise County Community College District,AZ,Sierra Vista,Cochise County,04003,31.564597,-110.246946,13,1,4,2,1,1,0,2,0,-2,43420,1,-2,9,3,0,1,1,2,https://www.cochise.edu/,https://apply.cochise.edu/,https://www.cochise.edu/fa/
104443,Empire Beauty School-Chandler,AZ,Chandler,Maricopa County,04013,33.347586,-111.860423,11,3,9,1,0,1,0,1,1,EEG Inc.,38060,1,429,-2,-2,-2,-2,-2,-2,www.empire.edu/,www.empire.edu/apply-now,www.empire.edu/
104568,Avalon Institute-Mesa,AZ,Mesa,Maricopa County,04013,33.376583,-111.858305,11,3,9,1,0,1,0,1,1,EA Education Inc.,38060,1,429,-2,-2,-2,-2,-2,-2,avalon.edu/mesa-az/, ,avalon.edu/admissions-financial-aid/financial-aid/
104577,Eastern Arizona College,AZ,Thatcher,Graham County,04009,32.843664,-109.76234,33,1,4,2,1,1,0,2,0,-2,40940,2,-2,6,2,0,1,1,3,www.eac.edu/,www.eac.edu/Admissions/Portal/,www.eac.edu/Student_Services/Financial_Aid/
104586,Embry-Riddle Aeronautical University-Prescott,AZ,Prescott,Yavapai County,04025,34.616766,-112.449741,41,2,2,4,1,1,1,2,1,Embry-Riddle Aeronautical University Inc.,39150,1,-2,22,16,8,12,3,10,prescott.erau.edu/,prescott.erau.edu/admissions/apply,prescott.erau.edu/financial-aid
104665,The School of Architecture,AZ,Paradise Valley,Maricopa County,04013,33.566649,-111.941953,21,2,2,4,1,0,1,1,0,-2,38060,1,429,32,0,3,0,7,18,https://tsoa.edu/,https://tsoa.edu/master-of-architecture/apply/,https://tsoa.edu/master-of-architecture/financial-aid-2021/
104708,Glendale Community College,AZ,Glendale,Maricopa County,04013,33.570226,-112.190735,21,1,4,2,1,1,0,4,1,Maricopa Community College District,38060,1,429,2,1,0,1,1,4,www.gccaz.edu/, , 
104717,Grand Canyon University,AZ,Phoenix,Maricopa County,04013,33.513231,-112.129929,11,3,3,4,1,1,1,5,0,-2,38060,1,429,17,19,18,5,5,15,www.gcu.edu/,https://www.gcu.edu/, 
105136,Maricopa Community College System Office,AZ,Tempe,Maricopa County,04013,33.412915,-111.975786,12,1,0,2,1,1,0,-2,1,Maricopa Community College District,38060,1,429,-2,-2,-2,-2,-2,-2,https://www.maricopa.edu/, , 
105145,GateWay Community College,AZ,Phoenix,Maricopa County,04013,33.449686,-111.997077,11,1,4,2,1,1,0,2,1,Maricopa Community College District,38060,1,429,8,3,0,1,1,3,www.gatewaycc.edu/, , 
105154,Mesa Community College,AZ,Mesa,Maricopa County,04013,33.390323,-111.871255,11,1,4,2,1,1,0,4,1,Maricopa Community College District,38060,1,429,2,1,0,1,1,4,www.mesacc.edu/, , 
105206,Mohave Community College,AZ,Kingman,Mohave County,04015,35.270996,-114.029838,41,1,4,2,1,1,0,2,0,-2,29420,1,-2,6,2,0,1,1,2,https://www.mohave.edu/,https://apply.mohave.edu/,https://www.mohave.edu/paying-for-college/financial-aid/
105215,Universal Technical Institute of Arizona Inc-Motorcycle Mechanics Institute Division,AZ,Avondale,Maricopa County,04013,33.453005,-112.288123,22,3,6,2,1,1,0,1,1,Universal Technical Institute Inc.,38060,1,429,-2,-2,-2,-2,-2,-2,www.uti.edu/,www.uti.edu/,www.uti.edu/Student-Services/Financial-Aid
105297,Dine College,AZ,Tsaile,Apache County,04001,36.293328,-109.21684,43,1,1,4,1,1,1,2,0,-2,-2,-2,-2,33,9,0,5,2,6,https://www.dinecollege.edu/,https://www.dinecollege.edu/admissions/admissions,https://www.dinecollege.edu/admissions/financial-aid/
105330,Northern Arizona University,AZ,Flagstaff,Coconino County,04005,35.188449,-111.653724,13,1,1,4,1,1,1,5,1,Arizona Board of Regents,22380,1,-2,16,13,15,11,4,16,https://nau.edu/,https://nau.edu/how-to-apply,https://nau.edu/office-of-scholarships-and-financial-aid/
105349,Northland Pioneer College,AZ,Holbrook,Navajo County,04017,34.93031,-110.142199,41,1,4,2,1,1,0,2,0,-2,43320,2,-2,9,3,0,1,1,2,www.npc.edu/,www.npc.edu/Application,www.npc.edu/financial-aid-scholarships
105367,Ottawa University-Phoenix,AZ,Phoenix,Maricopa County,04013,33.572173,-112.113001,11,2,2,4,1,1,1,1,0,-2,38060,1,429,19,16,11,5,6,6,www.ottawa.edu/,www.ottawa.edu/apply,https://www.ottawa.edu/professional/tuition-and-financial-aid/overview/
105428,Phoenix College,AZ,Phoenix,Maricopa County,04013,33.481361,-112.088293,11,1,4,2,1,1,0,3,1,Maricopa Community College District,38060,1,429,2,1,0,1,1,3,www.phoenixcollege.edu/, , 
105525,Pima Community College,AZ,Tucson,Pima County,04019,32.222125,-110.886659,11,1,4,2,1,1,0,4,0,-2,46060,1,536,3,1,0,1,1,4,www.pima.edu/,www.pima.edu/admission/apply-to-pima/index,www.pima.edu/paying-for-college/financial-aid/index
105534,Pima Medical Institute-Tucson,AZ,Tucson,Pima County,04019,32.248067,-110.878783,11,3,3,4,1,1,1,2,0,-2,46060,1,536,26,18,0,11,2,9,https://pmi.edu/, , 
105543,Pima Medical Institute-Albuquerque,NM,Albuquerque,Bernalillo County,35001,35.104855,-106.59488,11,3,6,2,1,1,0,1,0,-2,10740,1,106,10,4,0,4,1,2,https://pmi.edu/, , 
105589,Prescott College,AZ,Prescott,Yavapai County,04025,34.5452,-112.477185,13,2,2,4,1,1,1,1,0,-2,39150,1,-2,19,14,12,9,5,7,https://www.prescott.edu/,https://www.prescott.edu/apply,https://www.prescott.edu/apply-financial-aid
105659,Refrigeration School Inc,AZ,Phoenix,Maricopa County,04013,33.448692,-111.989357,11,3,6,2,1,1,0,2,1,Tulsa Welding School Inc.,38060,1,429,11,4,0,4,1,2,https://www.rsi.edu/, ,https://www.rsi.edu/tuition-planning/financial-aid/
105668,Rio Salado College,AZ,Tempe,Maricopa County,04013,33.413309,-111.97417,12,1,4,2,1,1,0,4,1,Maricopa Community College District,38060,1,429,6,2,0,1,1,4,www.rio.maricopa.edu/, , 
105677,Roberto-Venn School of Luthiery,AZ,Phoenix,Maricopa County,04013,33.45489,-112.086161,11,3,9,1,0,1,0,1,0,-2,38060,1,429,-2,-2,-2,-2,-2,-2,www.roberto-venn.com/,www.roberto-venn.com/guitar-making-repair-program/apply/,www.roberto-venn.com/guitar-making-repair-program/financial-aid/
105747,Scottsdale Community College,AZ,Scottsdale,Maricopa County,04013,33.51135,-111.885186,41,1,4,2,1,1,0,3,1,Maricopa Community College District,38060,1,429,3,1,0,1,1,3,www.scottsdalecc.edu/, , 
105792,South Mountain Community College,AZ,Phoenix,Maricopa County,04013,33.382406,-112.032635,11,1,4,2,1,1,0,2,1,Maricopa Community College District,38060,1,429,2,1,0,1,1,2,www.southmountaincc.edu/, , 
105899,Arizona Christian University,AZ,Glendale,Maricopa County,04013,33.622952,-112.181776,21,2,2,4,1,1,0,2,0,-2,38060,1,429,22,15,0,11,2,8,arizonachristian.edu/,arizonachristian.edu/apply/,arizonachristian.edu/financial-aid/
106041,Universal Technical Institute of Arizona Inc,AZ,Avondale,Maricopa County,04013,33.453005,-112.288123,22,3,6,2,1,1,0,2,1,Universal Technical Institute Inc.,38060,1,429,11,4,0,4,1,2,www.uti.edu/,www.uti.edu/,www.uti.edu/Student-Services/Financial-Aid
106148,Yavapai College,AZ,Prescott,Yavapai County,04025,34.547495,-112.453395,13,1,4,2,1,1,0,3,0,-2,39150,1,-2,2,1,0,1,1,3,https://www.yc.edu/,https://www.yc.edu/v6/admissions/getting-started.html,https://www.yc.edu/v6/financial-aid/
106245,University of Arkansas at Little Rock,AR,Little Rock,Pulaski County,05119,34.723254,-92.339778,12,1,1,4,1,1,1,3,1,University of Arkansas System,30780,1,340,16,13,17,7,5,12,ualr.edu/www/,ualr.edu/admissions/application/,ualr.edu/financialaid/
106263,University of Arkansas for Medical Sciences,AR,Little Rock,Pulaski County,05119,34.750152,-92.322348,12,1,1,4,1,1,1,2,1,University of Arkansas System,30780,1,340,27,20,18,7,6,9,https://www.uams.edu/,https://students.uams.edu/apply/,https://students.uams.edu/financial-services/financial-aid/
106306,Arkansas Baptist College,AR,Little Rock,Pulaski County,05119,34.734751,-92.290555,12,2,2,4,1,1,0,1,0,-2,30780,1,340,23,5,0,7,2,7,www.arkansasbaptist.edu/,my.arkansasbaptist.edu/ICS/Admissions/Apply_Now.jnz,https://www.arkansasbaptist.edu/financial-aid/
106315,Arkansas Beauty School-Little Rock,AR,Little Rock,Pulaski County,05119,34.672171,-92.343366,12,3,9,1,0,1,0,1,0,-2,30780,1,340,-2,-2,-2,-2,-2,-2,arbs.edu/, , 
106324,Arkansas Beauty College,AR,Russellville,Pope County,05115,35.27902,-93.135369,33,3,9,1,0,1,0,1,0,-2,40780,2,-2,-2,-2,-2,-2,-2,-2,https://www.arkansasbeautycollege.us/,cdn.website-editor.net/3fac8348cd68428689a52dd8e8c7c8a5/files/uploaded/Pre-Enrollement%2520Application%25202019%2520Blank.pdf, 
106342,Lyon College,AR,Batesville,Independence County,05063,35.777619,-91.625354,33,2,2,4,1,1,0,1,0,-2,12900,2,-2,21,9,0,12,2,8,www.lyon.edu/,https://lyon-uga.edu.185r.net/survey/?id=112,https://www.lyon.edu/financial-aid
106351,Arkansas Technical School,AR,North Little Rock,Pulaski County,05119,34.753843,-92.266429,13,3,9,1,0,1,0,1,0,-2,30780,1,340,-2,-2,-2,-2,-2,-2,www.arktech.edu/,www.arktech.edu/,www.arktech.edu/
106360,Arthur's Beauty College,AR,Fort Smith,Sebastian County,05131,35.379955,-94.410967,13,3,9,1,0,1,0,1,1,Arthur's Beauty College Inc.,22900,1,-2,-2,-2,-2,-2,-2,-2,www.arthursbeautycollege.com/,www.arthursbeautycollege.com/application.html,www.arthursbeautycollege.com/financial-aid.html
106397,University of Arkansas,AR,Fayetteville,Washington County,05143,36.070009,-94.176981,13,1,1,4,1,1,1,5,1,University of Arkansas System,22220,1,-2,15,17,15,12,4,16,https://www.uark.edu/,https://admissions.uark.edu/apply/,https://finaid.uark.edu/
106412,University of Arkansas at Pine Bluff,AR,Pine Bluff,Jefferson County,05069,34.244031,-92.018683,13,1,1,4,1,1,1,2,1,University of Arkansas System,38220,1,340,22,16,6,10,3,11,www.uapb.edu/,https://www.uapb.edu/admissions.aspx,www.uapb.edu/administration/enrollment_management/financial_aid.aspx
106449,Arkansas State University-Beebe,AR,Beebe,White County,05145,35.074176,-91.895351,31,1,4,2,1,1,0,2,1,Arkansas State University System,42620,2,340,4,2,0,2,1,3,www.asub.edu/,www.asub.edu/admissions/index.aspx,www.asub.edu/financial-aid/
106458,Arkansas State University,AR,Jonesboro,Craighead County,05031,35.842388,-90.679988,13,1,1,4,1,1,1,4,1,Arkansas State University System,27860,1,308,16,16,18,9,4,13,www.astate.edu/,https://www.astate.edu/info/apply/,www.astate.edu/finaid
106467,Arkansas Tech University,AR,Russellville,Pope County,05115,35.293237,-93.13562,33,1,1,4,1,1,1,3,0,-2,40780,2,-2,18,16,12,10,3,13,www.atu.edu/,www.atu.edu/admissions/,www.atu.edu/finaid/
106485,University of Arkansas at Monticello,AR,Monticello,Drew County,05043,33.590909,-91.811153,33,1,1,4,1,1,1,2,1,University of Arkansas System,-2,-2,-2,19,13,6,11,3,10,www.uamont.edu/,https://weevilnetcs.uamont.cloud/psc/csprd/EMPLOYEE/SA/c/CTF_MENU.CTF_C_SIGNON.GBL?Page=CTF_C_SIGNON&Action=U&CTF_ID=UAM_APP1&TargetFrameName=None&,www.uamont.edu/admissions/financial-aid/index.html
106494,Arthur's Beauty College,AR,Jacksonville,Pulaski County,05119,34.891572,-92.102579,21,3,9,1,0,1,0,1,1,Arthur's Beauty College Inc.,30780,1,340,-2,-2,-2,-2,-2,-2,arthursbeautycollege.com/,www.arthursbeautycollege.com/application.html,https://www.arthursbeautycollege.com/financial-aid.html
106546,Baptist Health College Little Rock,AR,Little Rock,Pulaski County,05119,34.713115,-92.40692,12,2,5,2,1,1,0,1,1,Baptist Health,30780,1,340,10,4,0,4,1,2,https://www.bhclr.edu/,https://bhclr.edu/prospective-students/application-information/application/,https://www.bhclr.edu/student-services/financial-aid/
106625,Black River Technical College,AR,Pocahontas,Randolph County,05121,36.239793,-90.951033,41,1,4,2,1,1,0,2,0,-2,-2,-2,-2,1,1,0,2,1,2,www.blackrivertech.edu/,https://www.blackrivertech.org/admission-registration-enrollment,www.blackrivertech.org/financial-aid
106704,University of Central Arkansas,AR,Conway,Faulkner County,05045,35.077945,-92.457672,13,1,1,4,1,1,1,3,0,-2,30780,1,340,17,16,18,13,4,13,www.uca.edu/,uca.edu/admissions/apply,uca.edu/financialaid/
106713,Central Baptist College,AR,Conway,Faulkner County,05045,35.083838,-92.445021,13,2,2,4,1,1,0,1,0,-2,30780,1,340,22,18,0,11,2,7,www.cbc.edu/,https://www.cbc.edu/apply,https://www.cbc.edu/cost
106795,Cossatot Community College of the University of Arkansas,AR,De Queen,Sevier County,05133,34.043389,-94.3673,41,1,4,2,1,1,0,2,1,University of Arkansas System,-2,-2,-2,2,1,0,1,1,2,www.cccua.edu/,www.cccua.edu/apply-enroll,www.cccua.edu/pay-for-college/financial-aid
106810,Crowley's Ridge College,AR,Paragould,Greene County,05055,36.064845,-90.584395,41,2,2,4,1,1,0,1,0,-2,37500,2,308,22,18,0,10,2,8,www.crc.edu/, , 
106883,East Arkansas Community College,AR,Forrest City,St. Francis County,05123,35.041655,-90.767726,32,1,4,2,1,1,0,2,0,-2,22620,2,368,5,2,0,2,1,2,https://www.eacc.edu/,https://my.eacc.edu/ICS/Admissions/Admissions_Home.jnz,https://www.eacc.edu/financial-aid
106892,Eastern College of Health Vocations-Little Rock,AR,Little Rock,Pulaski County,05119,34.75128,-92.341891,12,3,9,1,0,1,0,1,0,-2,30780,1,340,-2,-2,-2,-2,-2,-2,www.easterncollege.edu/,www.easterncollege.edu/,www.easterncollege.edu/
106908,Paul Mitchell the School-Little Rock,AR,North Little Rock,Pulaski County,05119,34.789913,-92.222202,13,3,9,1,0,1,0,1,1,Paul Mitchell Advanced Education,30780,1,340,-2,-2,-2,-2,-2,-2,paulmitchell.edu/littlerock,https://paulmitchell.edu/littlerock/request-enrollment-information,https://paulmitchell.edu/littlerock/financial-aid
106980,National Park College,AR,Hot Springs,Garland County,05051,34.512687,-93.119248,23,1,4,2,1,1,0,2,0,-2,26300,1,284,4,2,0,3,1,2,www.np.edu/,https://www.np.edu/admissions,https://np.edu/admissions/financial-aid
106999,University of Arkansas Community College-Batesville,AR,Batesville,Independence County,05063,35.792923,-91.615852,33,1,4,2,1,1,0,2,1,University of Arkansas System,12900,2,-2,7,3,0,2,1,2,www.uaccb.edu/,www.uaccb.edu/application/step1/,www.uaccb.edu/financial-aid/
107044,Harding University,AR,Searcy,White County,05145,35.247386,-91.726143,32,2,2,4,1,1,1,2,0,-2,42620,2,340,17,16,12,12,4,14,www.harding.edu/,www.harding.edu/admissions/howtoapply.html,www.harding.edu/finaid/
107071,Henderson State University,AR,Arkadelphia,Clark County,05019,34.128155,-93.059703,32,1,1,4,1,1,1,2,1,Arkansas State University System,11660,2,-2,19,16,6,11,3,11,https://www.hsu.edu/,https://admissions.hsu.edu/apply/,https://www.hsu.edu/pages/future-students/financial-aid/
107080,Hendrix College,AR,Conway,Faulkner County,05045,35.101565,-92.443256,13,2,2,4,1,1,1,2,0,-2,30780,1,340,21,7,2,12,3,11,https://www.hendrix.edu/,https://www.hendrix.edu/apply,https://www.hendrix.edu/financialaid
107099,Hot Springs Beauty College,AR,Hot Springs,Garland County,05051,34.496057,-93.037277,13,3,9,1,0,1,0,1,0,-2,26300,1,284,-2,-2,-2,-2,-2,-2,hotspringsbeautycollege.com/,https://hotspringsbeautycollege.com/apply, 
107123,Jefferson Regional School of Nursing,AR,Pine Bluff,Jefferson County,05069,34.187831,-92.018045,13,2,5,2,1,1,0,1,1,Jefferson Regional Medical System,38220,1,340,10,4,0,4,1,1,www.jrmc.org/,www.jrmc.org/,www.jrmc.org/
107141,John Brown University,AR,Siloam Springs,Benton County,05007,36.189812,-94.560283,32,2,2,4,1,1,1,2,0,-2,22220,1,-2,19,16,11,13,4,11,https://www.jbu.edu/,https://www.jbu.edu/apply/,https://www.jbu.edu/financial-aid
107220,Career Academy of Hair Design,AR,Springdale,Washington County,05143,36.167605,-94.12947,13,3,9,1,0,1,0,1,0,-2,22220,1,-2,-2,-2,-2,-2,-2,-2,www.beautynwa.com/,www.beautynwa.com/,www.beautynwa.com/
107293,Academy of Salon and Spa,AR,Fort Smith,Sebastian County,05131,35.38097,-94.41616,13,3,9,1,0,1,0,1,0,-2,22900,1,-2,-2,-2,-2,-2,-2,-2,www.academysalonspa.com/,www.academysalonspa.com/contact-us/contact-admissions/,www.academysalonspa.com/courses/financial-aid/
107318,Arkansas State University Mid-South,AR,West Memphis,Crittenden County,05035,35.145736,-90.22285,21,1,4,2,1,1,0,1,1,Arkansas State University System,32820,1,368,3,1,0,1,1,2,www.asumidsouth.edu/,https://www.asumidsouth.edu/mscc_db_forms/,www.asumidsouth.edu/financialaid/
107327,Arkansas Northeastern College,AR,Blytheville,Mississippi County,05093,35.898597,-89.921005,41,1,4,2,1,1,0,2,0,-2,14180,2,-2,5,2,0,2,1,2,www.anc.edu/, ,www.anc.edu/
107442,New Tyler Barber College Inc,AR,North Little Rock,Pulaski County,05119,34.760085,-92.254171,13,3,9,1,0,1,0,1,0,-2,30780,1,340,-2,-2,-2,-2,-2,-2,newtylerbarbercollege.edu/, ,newtylerbarbercollege.edu/
107460,North Arkansas College,AR,Harrison,Boone County,05009,36.219909,-93.08844,33,1,4,2,1,1,0,2,0,-2,25460,2,-2,4,2,0,2,1,2,www.northark.edu/,https://www.cognitoforms.com/NorthArkansasCollege1/AdmissionApplication,www.northark.edu/tuition-and-aid/financial-aid/index
107488,Northwest Technical Institute,AR,Springdale,Washington County,05143,36.178032,-94.115346,13,1,7,1,0,1,0,1,0,-2,22220,1,-2,-2,-2,-2,-2,-2,-2,www.nwti.edu/, ,nwti.edu/
107512,Ouachita Baptist University,AR,Arkadelphia,Clark County,05019,34.126093,-93.052471,32,2,2,4,1,1,1,2,0,-2,11660,2,-2,21,12,0,12,3,11,www.obu.edu/,www.obu.edu/apply,www.obu.edu/finaid/
107521,Arkansas State University Three Rivers,AR,Malvern,Hot Spring County,05059,34.378745,-92.821416,31,1,4,2,1,1,0,2,1,Arkansas State University System,31680,2,284,9,3,0,1,1,2,www.asutr.edu/,https://www.asutr.edu/pages/apply_now,www.asutr.edu/pages/welcome_financial_aid
107549,Ozarka College,AR,Melbourne,Izard County,05065,36.053031,-91.896355,43,1,4,2,1,1,0,1,0,-2,-2,-2,-2,1,1,0,2,1,2,www.ozarka.edu/,https://otc.ozarka.edu/application/online_app_Start.cfm,www.ozarka.edu/finaid/
107558,University of the Ozarks,AR,Clarksville,Johnson County,05071,35.476278,-93.467221,33,2,2,4,1,1,0,1,0,-2,-2,-2,-2,22,12,0,10,2,8,https://www.ozarks.edu/,https://ozarks.edu/admissions-aid/how-to-apply,https://ozarks.edu/admissions-aid/costs-and-aid
107585,University of Arkansas Community College-Morrilton,AR,Morrilton,Conway County,05029,35.172136,-92.728507,32,1,4,2,1,1,0,2,1,University of Arkansas System,-2,-2,-2,1,1,0,2,1,2,www.uaccm.edu/,www.uaccm.edu/Future_Student/Admission_Requirements.htm,www.uaccm.edu/Future_Student/Financial_Aid.htm
107600,Philander Smith College,AR,Little Rock,Pulaski County,05119,34.737131,-92.283015,12,2,2,4,1,1,0,1,0,-2,30780,1,340,22,12,0,11,2,8,https://www.philander.edu/,https://www.philander.edu/admissions/,https://www.philander.edu/financial-aid
107619,Phillips Community College of the University of Arkansas,AR,Helena,Phillips County,05107,34.546155,-90.616884,41,1,4,2,1,1,0,2,0,-2,25760,2,-2,5,2,0,2,1,2,www.pccua.edu/,www.pccua.edu/admissions-financial-aid/apply-now/,www.pccua.edu/admissions-financial-aid/financial-aid/
107637,Southeast Arkansas College,AR,Pine Bluff,Jefferson County,05069,34.210309,-92.025936,13,1,4,2,1,1,0,1,0,-2,38220,1,340,3,1,0,1,1,2,https://www.seark.edu/,https://www.seark.edu/getting-started,https://www.seark.edu/financial-aid
107655,Professional Cosmetology Education Center,AR,El Dorado,Union County,05139,33.216032,-92.664101,33,3,9,1,0,1,0,1,1,"Kelly Education, Inc.",20980,2,-2,-2,-2,-2,-2,-2,-2,https://www.pcec.edu/,https://www.pcec.edu/,https://www.pcec.edu/
107664,University of Arkansas-Pulaski Technical College,AR,North Little Rock,Pulaski County,05119,34.782783,-92.299184,13,1,4,2,1,1,0,2,1,University of Arkansas System,30780,1,340,1,1,0,2,1,3,uaptc.edu/,https://uaptc.edu/apply,uaptc.edu/financial-aid
107725,University of Arkansas Hope-Texarkana,AR,Hope,Hempstead County,05057,33.641665,-93.596762,32,1,4,2,1,1,0,2,1,University of Arkansas System,26260,2,-2,5,2,0,2,1,2,www.uaht.edu/,https://www.uaht.edu/admissions/application-for-admission/,www.uaht.edu/admissions/financial-aid/
107743,University of Arkansas Community College Rich Mountain,AR,Mena,Polk County,05113,34.591449,-94.219799,33,1,4,2,1,1,0,1,1,University of Arkansas System,-2,-2,-2,4,2,0,2,1,2,www.uarichmountain.edu/,https://eapplication.uarichmountain.edu/login.asp,www.uarichmountain.edu/financial-aid
107789,Paul Mitchell the School-Arkansas,AR,Fayetteville,Washington County,05143,36.126373,-94.153892,13,3,9,1,0,1,0,1,1,Paul Mitchell Advanced Education,22220,1,-2,-2,-2,-2,-2,-2,-2,https://paulmitchell.edu/arkansas/,https://paulmitchell.edu/arkansas/get-started,https://paulmitchell.edu/arkansas/financial-aid
107831,Searcy Beauty College,AR,Searcy,White County,05145,35.239148,-91.735135,32,3,9,1,0,1,0,1,0,-2,42620,2,340,-2,-2,-2,-2,-2,-2,searcybeautycollege.com/,searcybeautycollege.com/,searcybeautycollege.com/
107840,Shorter College,AR,N Little Rock,Pulaski County,05119,34.75933,-92.261331,13,2,5,2,1,1,0,1,0,-2,30780,1,340,1,1,0,3,1,1,www.shortercollege.edu/,www.shortercollege.edu/,www.shortercollege.edu/
107877,Williams Baptist University,AR,Walnut Ridge,Lawrence County,05075,36.125676,-90.940277,42,2,2,4,1,1,1,1,0,-2,-2,-2,-2,22,13,1,11,3,8,https://williamsbaptistuniversity.com/,https://williamsbu.edu/apply/,https://williamsbu.edu/everything-financial/
107974,South Arkansas Community College,AR,El Dorado,Union County,05139,33.209446,-92.666087,33,1,4,2,1,1,0,2,0,-2,20980,2,-2,5,2,0,2,1,2,www.southark.edu/,https://mycampus.southark.edu/ICS/ADmissions/Apply_Now.jnz,https://www.southark.edu/pay-for-college/pay-for-college-financial-aid
107983,Southern Arkansas University Main Campus,AR,Magnolia,Columbia County,05027,33.291618,-93.235922,33,1,1,4,1,1,1,3,0,-2,31620,2,-2,18,16,6,10,4,14,https://www.saumag.edu/,https://web.saumag.edu/admissions/apply/,https://web.saumag.edu/finaid/
107992,Southern Arkansas University Tech,AR,Camden,Calhoun County,05013,33.628367,-92.721629,42,1,4,2,1,1,0,1,1,Southern Arkansas University System,15780,2,-2,8,3,0,3,1,2,www.sautech.edu/,https://poise.sautech.edu/cc4/admapp.html,https://www.sautech.edu/financial-aid/
108056,University of Arkansas System Office,AR,Little Rock,Pulaski County,05119,34.775996,-92.343582,12,1,0,4,1,1,1,-2,1,University of Arkansas System,30780,1,340,-2,-2,-2,-2,-2,-2,www.uasys.edu/, , 
108065,Velvatex College of Beauty Culture,AR,Little Rock,Pulaski County,05119,34.735685,-92.289597,12,3,9,1,0,1,0,1,0,-2,30780,1,340,-2,-2,-2,-2,-2,-2,www.velvatexcollege.com/,www.velvatexcollege.com/,www.velvatexcollege.com/
108092,University of Arkansas-Fort Smith,AR,Fort Smith,Sebastian County,05131,35.384184,-94.373729,13,1,1,4,1,1,1,3,1,University of Arkansas System,22900,1,-2,22,15,3,7,3,12,https://uafs.edu/,https://lions.uafs.edu/apply/,https://uafs.edu/tuition-and-aid/
108232,Academy of Art University,CA,San Francisco,San Francisco County,06075,37.787943,-122.400578,11,3,3,4,1,1,1,3,0,-2,41860,1,488,18,20,8,5,5,12,www.academyart.edu/,www.academyart.edu/apply-for-admission/,www.academyart.edu/finances/financial-aid-office
108269,Academy of Chinese Culture and Health Sciences,CA,Oakland,Alameda County,06001,37.805972,-122.269839,11,2,2,4,1,0,1,1,0,-2,41860,1,488,26,0,3,0,7,18,www.acchs.edu/,https://acchs.empower-xl.com/forms/gen_cf/inq_app_exec_screen.cfm?scor_id=%2523%2528P%252FZ%250A,www.acchs.edu/prospective-students/costs-fa/
108667,College of Alameda,CA,Alameda,Alameda County,06001,37.781017,-122.279303,21,1,4,2,1,1,0,3,1,California Community College System,41860,1,488,3,1,0,1,1,3,https://alameda.edu/,https://launch.cccmypath.org/mypath/341?authSource=OpenCCC,https://alameda.edu/services/financial-aid/
108807,Allan Hancock College,CA,Santa Maria,Santa Barbara County,06083,34.943716,-120.421144,12,1,4,2,1,1,0,4,0,-2,42200,1,-2,2,1,0,1,1,4,www.hancockcollege.edu/,www.hancockcollege.edu/apply/cccapply.php,www.hancockcollege.edu/finaid/index.php
108852,American Academy of Dramatic Arts-Los Angeles,CA,Los Angeles,Los Angeles County,06037,34.095378,-118.343701,11,2,5,2,1,1,0,1,1,American Academy of Dramatic Arts,31080,1,348,-2,-2,-2,-2,-2,-2,www.aada.edu/,https://www.aada.edu/admissions/full-time-application/,https://www.aada.edu/admissions/financial-aid/
108861,Berkeley School of Theology,CA,Berkeley,Alameda County,06001,37.865252,-122.256149,12,2,2,4,1,1,1,1,0,-2,41860,1,488,24,0,3,0,7,18,www.bst.edu/,www.bst.edu/?s=Admissions,https://www.bst.edu/prospective-students/financing-a-seminary-education/
108870,American Film Institute Conservatory,CA,Los Angeles,Los Angeles County,06037,34.10767,-118.310018,11,2,2,4,1,0,1,1,0,-2,31080,1,348,30,0,3,0,7,18,www.afi.com/,conservatory.afi.com/admissions-requirements/,conservatory.afi.com/applying-for-aid/
108977,American Beauty College,CA,West Covina,Los Angeles County,06037,34.069367,-117.936959,21,3,9,1,0,1,0,1,0,-2,31080,1,348,-2,-2,-2,-2,-2,-2,https://www.americanbeautycollege.edu/,https://www.americanbeautycollege.edu/,https://www.americanbeautycollege.edu/
109040,American Career College-Los Angeles,CA,Los Angeles,Los Angeles County,06037,34.079323,-118.292481,11,3,6,2,1,1,0,2,1,American Career College Inc.,31080,1,348,10,4,0,4,1,2,https://americancareercollege.edu/,https://new.americancareercollege.edu/apply-online,https://new.americancareercollege.edu/#
109086,American Conservatory Theater,CA,San Francisco,San Francisco County,06075,37.786923,-122.410265,11,2,2,4,1,1,1,-2,-2,-2,41860,1,488,30,0,3,0,6,18,www.act-sf.org/,https://americanconservatorytheater.submittable.com/submit/254f80ab-20ef-48af-af72-b280e2fc4235/2018-2019-m-f-a-certificate-program-application-form,www.act-sf.org/home/conservatory/mfa_program/mfa_financial_aid.html
109208,American River College,CA,Sacramento,Sacramento County,06067,38.65085,-121.349672,21,1,4,2,1,1,0,5,1,California Community College System,40900,1,472,5,2,0,1,1,5,https://www.arc.losrios.edu/,https://www.arc.losrios.edu/admissions/get-started-and-apply,https://www.arc.losrios.edu/student-resources/financial-aid
109350,Antelope Valley Community College District,CA,Lancaster,Los Angeles County,06037,34.676207,-118.186166,21,1,1,4,1,1,0,4,0,-2,31080,1,348,14,5,0,5,2,12,www.avc.edu/,www.avc.edu/studentservices/adminrec/applyonline,www.avc.edu/studentservices/finaid/
109651,Art Center College of Design,CA,Pasadena,Los Angeles County,06037,34.169031,-118.185102,12,2,2,4,1,1,1,2,0,-2,31080,1,348,20,20,8,13,4,9,www.artcenter.edu/,www.artcenter.edu/apply.html,www.artcenter.edu/admissions/tuition-and-aid/financial-aid/financial-aid-eligibility.html
109721,Associated Technical College-Los Angeles,CA,Los Angeles,Los Angeles County,06037,34.056102,-118.272364,11,3,9,1,0,1,0,1,1,Diversified Education Company,31080,1,348,-2,-2,-2,-2,-2,-2,www.atcla.edu/, ,www.atcla.edu/financial-aid.html
109730,Associated Technical College-San Diego,CA,San Diego,San Diego County,06073,32.773178,-117.135196,11,3,9,1,0,1,0,1,1,Diversified Education Company,41740,1,-2,-2,-2,-2,-2,-2,-2,www.atcsd.edu/,www.atcsd.edu/,www.atcsd.edu/financial-aid.html
109785,Azusa Pacific University,CA,Azusa,Los Angeles County,06037,34.130047,-117.888375,21,2,2,4,1,1,1,3,0,-2,31080,1,348,16,16,18,11,5,14,www.apu.edu/,https://www.apu.edu/undergraduate-admissions/apply/,www.apu.edu/sfs/
109819,Bakersfield College,CA,Bakersfield,Kern County,06029,35.40911,-118.973753,11,1,1,4,1,1,0,5,1,California Community College System,12540,1,-2,14,5,0,5,2,15,www.bakersfieldcollege.edu/,https://www.bakersfieldcollege.edu/apply,www.bakersfieldcollege.edu/finaid/
109907,Barstow Community College,CA,Barstow,San Bernardino County,06071,34.870285,-117.023412,32,1,4,2,1,1,0,2,1,California Community College System,40140,1,348,7,3,0,2,1,2,www.barstow.edu/,https://www.opencccapply.net/gateway/apply?cccMisCode=911,www.barstow.edu/Financial-Aid.html
109934,Bellus Academy-Chula Vista,CA,Chula Vista,San Diego County,06073,32.614773,-117.083738,11,3,6,2,0,1,0,1,1,Beauty Boutique Inc.,41740,1,-2,-2,-2,-2,-2,-2,-2,www.bellusacademy.edu/, , 
110060,Bethesda University,CA,Anaheim,Orange County,06059,33.842295,-117.941323,11,2,2,4,1,1,1,1,0,-2,31080,1,348,22,20,7,11,5,6,www.buc.edu/,www.buc.edu/admissions,www.buc.edu/financial-aid
110097,Biola University,CA,La Mirada,Los Angeles County,06037,33.906203,-118.014374,21,2,2,4,1,1,1,3,0,-2,31080,1,348,17,13,18,13,5,14,https://www.biola.edu/,https://www.biola.edu/admissions/undergrad#apply-now,https://www.biola.edu/financial-aid/scholarships-and-aid/undergrad
110194,Brownson Technical School,CA,Anaheim,Orange County,06059,33.819032,-117.905774,11,3,9,1,0,1,0,1,0,-2,31080,1,348,-2,-2,-2,-2,-2,-2,https://brownson.edu/, ,https://patti@brownson.edu/
110219,Bryan University,AZ,Tempe,Maricopa County,04013,33.437779,-111.944197,12,3,3,4,1,1,1,2,0,-2,38060,1,429,23,5,0,11,2,9,bryanuniversity.edu/,https://online.bryanuniversity.edu/Applicant/ApplyOnline_CreateAccount.aspx,bryanuniversity.edu/
110246,Butte College,CA,Oroville,Butte County,06007,39.649782,-121.644831,42,1,4,2,1,1,0,3,1,California Community College System,17020,1,-2,7,3,0,2,1,4,www.butte.edu/,www.butte.edu/services/admissions/apply.html,www.butte.edu/financialaid/
110316,California Institute of Integral Studies,CA,San Francisco,San Francisco County,06075,37.774924,-122.416102,11,2,2,4,1,1,1,2,0,-2,41860,1,488,17,8,16,11,6,9,www.ciis.edu/,www.ciis.edu/apply,www.ciis.edu/admissions-and-financial-aid
110334,Cabrillo College,CA,Aptos,Santa Cruz County,06087,36.989448,-121.924797,22,1,4,2,1,1,0,3,1,California Community College System,42100,1,488,1,1,0,1,1,4,https://www.cabrillo.edu/,https://www.cabrillo.edu/apply-register/,https://www.cabrillo.edu/financial-aid/
110361,California Baptist University,CA,Riverside,Riverside County,06065,33.929321,-117.425619,11,2,2,4,1,1,1,4,0,-2,40140,1,348,18,16,18,11,4,13,www.calbaptist.edu/,www.calbaptist.edu/future-students/why-cbu/applying-cbu/,www.calbaptist.edu/admissions/financial-aid/
110370,California College of the Arts,CA,San Francisco,San Francisco County,06075,37.767485,-122.399451,11,2,2,4,1,1,1,2,0,-2,41860,1,488,30,17,8,11,4,11,www.cca.edu/,www.cca.edu/admissions/apply,www.cca.edu/admissions/financial-aid/
110398,University of California-Hastings College of Law,CA,San Francisco,San Francisco County,06075,37.781137,-122.4157,11,1,1,4,1,0,1,2,0,-2,41860,1,488,31,0,11,0,7,18,www.uchastings.edu/,https://www.uchastings.edu/apply/,www.uchastings.edu/about/admin-offices/financial-aid/
110404,California Institute of Technology,CA,Pasadena,Los Angeles County,06037,34.137349,-118.125878,12,2,2,4,1,1,1,2,0,-2,31080,1,348,15,11,17,14,6,11,www.caltech.edu/,www.admissions.caltech.edu/apply,www.finaid.caltech.edu/
110413,California Lutheran University,CA,Thousand Oaks,Ventura County,06111,34.224566,-118.878924,12,2,2,4,1,1,1,2,0,-2,37100,1,348,18,10,7,13,5,14,www.callutheran.edu/,www.callutheran.edu/admission/apply.html,www.callutheran.edu/financial-aid/
110422,California Polytechnic State University-San Luis Obispo,CA,San Luis Obispo,San Luis Obispo County,06079,35.299513,-120.657311,23,1,1,4,1,1,1,5,1,California State University,42020,1,-2,18,16,4,14,3,16,calpoly.edu/,www2.calstate.edu/apply,https://www.calpoly.edu/financial-aid
110468,Alliant International University-San Diego,CA,San Diego,San Diego County,06073,32.897056,-117.094398,11,3,3,4,1,1,1,2,1,"Alliant International University, Inc.",41740,1,-2,17,13,18,5,6,9,https://www.alliant.edu/,https://apply.alliant.edu/,https://www.alliant.edu/admissions/financial-aid-and-scholarship-resources
110486,California State University-Bakersfield,CA,Bakersfield,Kern County,06029,35.350005,-119.104711,11,1,1,4,1,1,1,3,1,California State University,12540,1,-2,18,13,12,13,4,15,www.csub.edu/,https://www2.calstate.edu/apply,www.csub.edu/FinAid/
110495,California State University-Stanislaus,CA,Turlock,Stanislaus County,06099,37.52577,-120.852511,23,1,1,4,1,1,1,4,1,California State University,33700,1,488,18,13,12,11,4,12,https://www.csustan.edu/,https://www.calstate.edu/apply,https://www.csustan.edu/financial-aid-scholarship
110501,California State University-Chancellors Office,CA,Long Beach,Los Angeles County,06037,33.764338,-118.201255,11,1,0,4,1,1,1,-2,1,California State University,31080,1,348,-2,-2,-2,-2,-2,-2,www.calstate.edu/,https://www.calstate.edu/apply, 
110510,California State University-San Bernardino,CA,San Bernardino,San Bernardino County,06071,34.182622,-117.323801,12,1,1,4,1,1,1,4,1,California State University,40140,1,348,16,13,12,11,4,15,www.csusb.edu/,https://www2.calstate.edu/apply,www.csusb.edu/financial-aid
110529,California State Polytechnic University-Pomona,CA,Pomona,Los Angeles County,06037,34.057912,-117.821476,21,1,1,4,1,1,1,5,1,California State University,31080,1,348,18,16,12,11,3,15,www.cpp.edu/,https://www2.calstate.edu/apply,www.cpp.edu/financial-aid/
110538,California State University-Chico,CA,Chico,Butte County,06007,39.729712,-121.844859,12,1,1,4,1,1,1,4,1,California State University,17020,1,-2,18,13,4,11,3,15,www.csuchico.edu/,https://www2.calstate.edu/apply,www.csuchico.edu/fa/
110547,California State University-Dominguez Hills,CA,Carson,Los Angeles County,06037,33.864766,-118.255917,13,1,1,4,1,1,1,4,1,California State University,31080,1,348,18,13,4,7,4,15,https://www.csudh.edu/,https://www.calstate.edu/apply,https://www.csudh.edu/financial-aid/
110556,California State University-Fresno,CA,Fresno,Fresno County,06019,36.811154,-119.744569,11,1,1,4,1,1,1,5,1,California State University,23420,1,260,16,13,12,11,3,15,www.fresnostate.edu/,https://www2.calstate.edu/apply,https://studentaffairs.fresnostate.edu/financialaid/index.html
110565,California State University-Fullerton,CA,Fullerton,Orange County,06059,33.881506,-117.885446,21,1,1,4,1,1,1,5,1,California State University,31080,1,348,16,14,12,11,3,15,www.fullerton.edu/,https://www2.calstate.edu/apply,www.fullerton.edu/financialaid/
110574,California State University-East Bay,CA,Hayward,Alameda County,06001,37.657694,-122.054135,21,1,1,4,1,1,1,4,1,California State University,41860,1,488,16,13,12,13,4,15,www.csueastbay.edu/,https://www2.calstate.edu/apply,https://www.csueastbay.edu/financialaid/index.html
110583,California State University-Long Beach,CA,Long Beach,Los Angeles County,06037,33.782818,-118.11204,11,1,1,4,1,1,1,5,1,California State University,31080,1,348,16,14,12,13,4,15,www.csulb.edu/,https://www2.calstate.edu/apply,www.csulb.edu/financial-aid
110592,California State University-Los Angeles,CA,Los Angeles,Los Angeles County,06037,34.066927,-118.168965,11,1,1,4,1,1,1,5,1,California State University,31080,1,348,18,14,12,11,4,15,https://www.calstatela.edu/,https://www2.calstate.edu/apply,https://www.calstatela.edu/financialaid
110608,California State University-Northridge,CA,Northridge,Los Angeles County,06037,34.240126,-118.529319,11,1,1,4,1,1,1,5,1,California State University,31080,1,348,18,14,12,11,4,15,https://www.csun.edu/,https://www2.calstate.edu/apply,https://www.csun.edu/financialaid/
110617,California State University-Sacramento,CA,Sacramento,Sacramento County,06067,38.559415,-121.423549,11,1,1,4,1,1,1,5,1,California State University,40900,1,472,18,14,12,11,3,15,https://www.csus.edu/,https://www2.calstate.edu/apply,https://www.csus.edu/apply/financial-aid-scholarships/
110635,University of California-Berkeley,CA,Berkeley,Alameda County,06001,37.871918,-122.260463,12,1,1,4,1,1,1,5,1,University of California,41860,1,488,15,11,15,15,5,16,www.berkeley.edu/,admission.universityofcalifornia.edu/apply-now.html,https://financialaid.berkeley.edu/contact-us
110644,University of California-Davis,CA,Davis,Yolo County,06113,38.539667,-121.749567,23,1,1,4,1,1,1,5,1,University of California,40900,1,472,15,11,14,15,4,16,ucdavis.edu/,admission.universityofcalifornia.edu/apply-now.html,financialaid.ucdavis.edu/
110653,University of California-Irvine,CA,Irvine,Orange County,06059,33.648434,-117.841248,11,1,1,4,1,1,1,5,1,University of California,31080,1,348,15,14,14,15,4,16,www.uci.edu/,admission.universityofcalifornia.edu/apply-now.html,www.ofas.uci.edu/
110662,University of California-Los Angeles,CA,Los Angeles,Los Angeles County,06037,34.07178,-118.442179,11,1,1,4,1,1,1,5,1,University of California,31080,1,348,15,8,14,15,5,17,www.ucla.edu/,admission.universityofcalifornia.edu/apply-now.html,financialaid.ucla.edu/
110671,University of California-Riverside,CA,Riverside,Riverside County,06065,33.97246,-117.32741,11,1,1,4,1,1,1,5,1,University of California,40140,1,348,15,11,14,13,4,16,www.ucr.edu/,admission.universityofcalifornia.edu/apply-now.html,financialaid.ucr.edu/
110680,University of California-San Diego,CA,La Jolla,San Diego County,06073,32.877749,-117.235866,11,1,1,4,1,1,1,5,1,University of California,41740,1,-2,15,11,14,15,4,17,www.ucsd.edu/,admission.universityofcalifornia.edu/apply-now.html,fas.ucsd.edu/
110699,University of California-San Francisco,CA,San Francisco,San Francisco County,06075,37.763737,-122.458489,11,1,1,4,1,0,1,2,1,University of California,41860,1,488,27,0,17,0,7,18,ucsf.edu/,ucsf.edu/education/admissions,finaid.ucsf.edu/
110705,University of California-Santa Barbara,CA,Santa Barbara,Santa Barbara County,06083,34.416297,-119.846426,22,1,1,4,1,1,1,5,1,University of California,42200,1,-2,15,8,15,15,4,16,www.ucsb.edu/,admission.universityofcalifornia.edu/apply-now.html,www.finaid.ucsb.edu/
110714,University of California-Santa Cruz,CA,Santa Cruz,Santa Cruz County,06087,36.995584,-122.058801,13,1,1,4,1,1,1,4,1,University of California,42100,1,488,15,8,17,15,4,17,www.ucsc.edu/,admission.universityofcalifornia.edu/apply-now.html,financialaid.ucsc.edu/
110778,Sofia University,CA,Palo Alto,Santa Clara County,06085,37.430325,-122.10866,13,3,3,4,1,1,1,1,0,-2,41940,1,488,32,20,13,7,6,6,www.sofia.edu/,https://sof-web.scansoftware.com/cafeweb/tapestry?page,www.sofia.edu/admissions/financial-aid
110875,California Beauty School,CA,Modesto,Stanislaus County,06099,37.645217,-120.99689,12,3,9,1,0,1,0,1,0,-2,33700,1,488,-2,-2,-2,-2,-2,-2,www.calbeautycollege.edu/,www.calbeautycollege.edu/contact,www.calbeautycollege.edu/
110918,California Christian College,CA,Fresno,Fresno County,06019,36.749366,-119.711123,11,2,2,4,1,1,0,1,0,-2,23420,1,260,24,18,0,7,2,7,www.calchristiancollege.edu/,www.calchristiancollege.edu/apply,www.calchristiancollege.edu/financial-aid
111045,Haven University,CA,Garden Grove,Orange County,06059,33.777392,-117.939412,21,2,2,4,1,1,1,1,0,-2,31080,1,348,24,8,3,11,5,6,www.haven.edu/,https://www.haven.edu/online-application,https://www.haven.edu/
111054,California Hair Design Academy,CA,La Mesa,San Diego County,06073,32.765221,-117.024261,21,3,9,1,0,1,0,1,0,-2,41740,1,-2,-2,-2,-2,-2,-2,-2,https://chdaschools.com/,https://chdaschools.com/apply-now/?rmcb=1568395305,https://chdaschools.com/for-students/financial-aid/
111081,California Institute of the Arts,CA,Valencia,Los Angeles County,06037,34.39327,-118.566837,21,2,2,4,1,1,1,2,0,-2,31080,1,348,19,11,13,15,5,11,https://www.calarts.edu/,https://calarts.edu/admissions/apply/,https://calarts.edu/financial-aid
111188,California State University Maritime Academy,CA,Vallejo,Solano County,06095,38.069061,-122.231551,12,1,1,4,1,1,1,1,1,California State University,46700,1,488,22,19,2,11,3,8,https://www.csum.edu/,https://www.csum.edu/admissions/requirements/,https://www.csum.edu/financial-aid/
111391,California Western School of Law,CA,San Diego,San Diego County,06073,32.722192,-117.162416,11,2,2,4,1,0,1,1,0,-2,41740,1,-2,31,0,3,0,7,18,https://www.cwsl.edu/,www.cwsl.edu/admissions_and_aid/how_to_apply/index.html,https://www.cwsl.edu/admissions_and_aid/financial_aid/index.html
111434,Canada College,CA,Redwood City,San Mateo County,06081,37.44877,-122.265398,21,1,4,2,1,1,0,3,1,San Mateo County Community College District,41860,1,488,3,1,0,1,1,3,canadacollege.edu/,canadacollege.edu/admissions/apply.php,canadacollege.edu/financialaid
111461,College of the Canyons,CA,Santa Clarita,Los Angeles County,06037,34.403993,-118.568698,21,1,4,2,1,1,0,4,0,-2,31080,1,348,2,1,0,1,1,5,www.canyons.edu/,www.canyons.edu/studentservices/enrollmentservices/newstudent.php,www.canyons.edu/studentservices/financialaid/index.php
111513,Career Academy of Beauty,CA,Garden Grove,Orange County,06059,33.781018,-118.031697,21,3,9,1,0,1,0,1,0,-2,31080,1,348,-2,-2,-2,-2,-2,-2,caofb.com/, , 
111638,Casa Loma College-Los Angeles,CA,Sherman Oaks,Los Angeles County,06037,34.155096,-118.466548,11,2,2,4,1,1,0,1,0,-2,31080,1,348,10,4,0,4,1,1,https://www.casalomacollege.edu/,https://casalomacollege.edu/enroll-dms/,https://casalomacollege.edu/financial-aid/about-financial-aid/
111708,CET-San Diego,CA,San Diego,San Diego County,06073,32.711302,-117.105328,11,2,8,1,0,1,0,1,1,Center for Employment Training,41740,1,-2,-2,-2,-2,-2,-2,-2,https://www.cetweb.edu/, ,https://cetweb.edu/financial-aid
111717,CET-San Jose,CA,San Jose,Santa Clara County,06085,37.322723,-121.88698,11,2,8,1,0,1,0,1,1,Center for Employment Training,41940,1,488,-2,-2,-2,-2,-2,-2,https://cetweb.edu/, ,https://cetweb.edu/financial-aid
111726,CET-El Centro,CA,El Centro,Imperial County,06025,32.790908,-115.549079,13,2,8,1,0,1,0,1,1,Center for Employment Training,20940,1,-2,-2,-2,-2,-2,-2,-2,https://cetweb.edu/, ,https://cetweb.edu/financial-aid
111744,CET-Colton,CA,Colton,San Bernardino County,06071,34.077381,-117.353488,21,2,8,1,0,1,0,1,1,Center for Employment Training,40140,1,348,-2,-2,-2,-2,-2,-2,https://cetweb.edu/, ,https://cetweb.edu/financial-aid
111762,CET-Watsonville,CA,Watsonville,Santa Cruz County,06087,36.931833,-121.767991,13,2,8,1,0,1,0,1,1,Center for Employment Training,42100,1,488,-2,-2,-2,-2,-2,-2,https://www.cetweb.edu/, ,https://cetweb.edu/financial-aid
111799,CET-Salinas,CA,Salinas,Monterey County,06053,36.707333,-121.65236,12,2,8,1,0,1,0,1,1,Center for Employment Training,41500,1,-2,-2,-2,-2,-2,-2,-2,https://cetweb.edu/, ,https://cetweb.edu/financial-aid
111887,Cerritos College,CA,Norwalk,Los Angeles County,06037,33.886874,-118.097337,21,1,4,2,1,1,0,4,1,California Community College System,31080,1,348,1,1,0,2,1,5,www.cerritos.edu/,www.cerritos.edu/school-relations/future-students/steps/first-time-college-student.htm,www.cerritos.edu/financial-aid/
111896,Cerro Coso Community College,CA,Ridgecrest,Kern County,06029,35.567525,-117.66767,41,1,4,2,1,1,0,2,1,California Community College System,12540,1,-2,3,1,0,1,1,3,cerrocoso.edu/,https://www.cerrocoso.edu/apply,https://www.cerrocoso.edu/studentservices/financial-aid
111920,Chabot College,CA,Hayward,Alameda County,06001,37.642458,-122.105636,21,1,4,2,1,1,0,4,1,California Community College System,41860,1,488,1,1,0,1,1,4,www.chabotcollege.edu/,https://home.cccapply.org/en/apply,www.chabotcollege.edu/finaid/
111939,Chaffey College,CA,Rancho Cucamonga,San Bernardino County,06071,34.147663,-117.573932,21,1,4,2,1,1,0,4,1,California Community College System,40140,1,348,1,1,0,1,1,5,https://www.chaffey.edu/,https://www.opencccapply.net/gateway/apply?cccMisCode=921,https://www.chaffey.edu/financialaid/index.php
111948,Chapman University,CA,Orange,Orange County,06059,33.79302,-117.852518,12,2,2,4,1,1,1,4,0,-2,31080,1,348,16,13,17,14,4,14,https://www.chapman.edu/,https://www.commonapp.org/explore/chapman-university,https://www.chapman.edu/students/tuition-and-aid/financial-aid/index.aspx
111966,Charles R Drew University of Medicine and Science,CA,Los Angeles,Los Angeles County,06037,33.925658,-118.242791,21,2,2,4,1,1,1,1,0,-2,31080,1,348,26,14,8,9,6,6,www.cdrewu.edu/,www.cdrewu.edu/Apply,www.cdrewu.edu/admissions/financial-aid
112075,Concordia University-Irvine,CA,Irvine,Orange County,06059,33.653665,-117.812305,11,2,2,4,1,1,1,2,1,Concordia University System,31080,1,348,17,13,12,13,6,14,www.cui.edu/,www.cui.edu/en-us/apply,www.cui.edu/studentlife/financial-aid/
112084,San Diego Christian College,CA,Spring Valley,San Diego County,06073,32.750035,-116.993906,21,2,2,4,1,1,1,1,0,-2,41740,1,-2,20,13,9,11,3,7,sdcc.edu/,sdcc.edu/apply-now,sdcc.edu/admissions/tuition-and-financial-aid/
112127,Church Divinity School of the Pacific,CA,Berkeley,Alameda County,06001,37.876184,-122.261122,12,2,2,4,1,0,1,1,0,-2,41860,1,488,24,0,3,0,7,18,www.cdsp.edu/,cdsp.edu/admissions/apply/,cdsp.edu/admissions/financial-aid
112172,Citrus College,CA,Glendora,Los Angeles County,06037,34.13537,-117.886469,21,1,4,2,1,1,0,3,0,-2,31080,1,348,1,1,0,1,1,4,https://www.citruscollege.edu/,https://www.citruscollege.edu/ar/Pages/ApplyingforAdmission.aspx,https://www.citruscollege.edu/stdntsrv/finaid/Pages/default.aspx
112181,Citrus Heights Beauty College,CA,Citrus Heights,Sacramento County,06067,38.712951,-121.289529,21,3,9,1,0,1,0,1,0,-2,40900,1,472,-2,-2,-2,-2,-2,-2,chbeautycollege.com/,chbeautycollege.com/programs/cosmetology,chbeautycollege.com/financial-aid/
112190,City College of San Francisco,CA,San Francisco,San Francisco County,06075,37.725953,-122.451155,11,1,4,2,1,1,0,4,0,-2,41860,1,488,4,2,0,1,1,5,www.ccsf.edu/,https://www.ccsf.edu/apply,www.ccsf.edu/paying-college/financial-aid-office
112251,Claremont Graduate University,CA,Claremont,Los Angeles County,06037,34.103585,-117.713703,21,2,2,4,1,0,1,2,0,-2,31080,1,348,16,0,15,0,7,18,www.cgu.edu/,admissions.cgu.edu/apply/,mycampus.cgu.edu/web/financial-aid/
112260,Claremont McKenna College,CA,Claremont,Los Angeles County,06037,34.102154,-117.711188,21,2,2,4,1,1,1,2,0,-2,31080,1,348,21,6,2,14,3,11,www.cmc.edu/,www.cmc.edu/admission/apply,www.cmc.edu/financial-aid
112288,Milan Institute-Visalia,CA,Visalia,Tulare County,06107,36.27164,-119.312151,12,3,9,1,0,1,0,1,1,Milan Institute,47300,1,-2,-2,-2,-2,-2,-2,-2,www.milaninstitute.edu/,www.milaninstitute.edu/,www.milaninstitute.edu/
112367,Clovis Adult Education,CA,Clovis,Fresno County,06019,36.834459,-119.690369,21,1,7,1,0,1,0,1,0,-2,23420,1,260,-2,-2,-2,-2,-2,-2,clovisadult.cusd.com/, ,www.clovisadulteducation.com/
112376,Coast Community College District Office,CA,Costa Mesa,Orange County,06059,33.674004,-117.916066,12,1,0,2,1,1,0,-2,1,California Community College System,31080,1,348,-2,-2,-2,-2,-2,-2,www.cccd.edu/,www.cccapply.org/, 
112385,Coastline Community College,CA,Fountain Valley,Orange County,06059,33.715634,-117.929143,13,1,4,2,1,1,0,3,1,California Community College System,31080,1,348,3,1,0,1,1,3,www.coastline.edu/,www.coastline.edu/apply/,www.coastline.edu/services/financial-aid/
112394,University of Silicon Valley,CA,San Jose,Santa Clara County,06085,37.414049,-121.94087,11,3,3,4,1,1,1,1,0,-2,41940,1,488,22,18,2,15,3,7,https://usv.edu/,https://usv.edu/apply-now/,https://usv.edu/admission/financial-aid/
112455,Coba Academy,CA,Anaheim,Orange County,06059,33.841141,-117.943108,11,3,9,1,0,1,0,1,0,-2,31080,1,348,-2,-2,-2,-2,-2,-2,www.coba.edu/,www.coba.edu/,www.coba.edu/
112525,Western University of Health Sciences,CA,Pomona,Los Angeles County,06037,34.058092,-117.747732,21,2,2,4,1,0,1,2,0,-2,31080,1,348,25,0,8,0,7,18,www.westernu.edu/, ,www.westernu.edu/financial/
112561,Columbia College,CA,Sonora,Tuolumne County,06109,38.030367,-120.388385,41,1,4,2,1,1,0,2,1,California Community College System,43760,2,-2,1,1,0,1,1,2,https://www.gocolumbia.edu/,https://www.opencccapply.net/gateway/apply?cccMisCode=591,https://www.gocolumbia.edu/financial_aid/
112570,Columbia College Hollywood,CA,Tarzana,Los Angeles County,06037,34.17972,-118.538793,11,2,2,4,1,1,0,1,0,-2,31080,1,348,30,6,0,11,2,6,https://www.columbiacollege.edu/,https://columbiacollege.edu/admissions/apply-now/,https://www.columbiacollege.edu/admissions/financial-aid-overview/
112686,Compton College,CA,Compton,Los Angeles County,06037,33.878226,-118.209463,21,1,4,2,1,1,0,2,1,California Community College System,31080,1,348,6,2,0,1,1,3,www.compton.edu/,www.compton.edu/apply/,www.compton.edu/studentservices/financialaid/index.aspx
112817,Contra Costa Community College District Office,CA,Martinez,Contra Costa County,06013,38.019072,-122.135335,21,1,0,2,1,1,0,-2,1,California Community College System,41860,1,488,-2,-2,-2,-2,-2,-2,https://www.4cd.edu/,https://home.cccapply.org/, 
112826,Contra Costa College,CA,San Pablo,Contra Costa County,06013,37.969381,-122.337377,21,1,4,2,1,1,0,3,1,California Community College System,41860,1,488,2,1,0,1,1,3,https://www.contracosta.edu/,https://www.contracosta.edu/admissions/apply-now/,https://www.contracosta.edu/admissions/pay-for-college/
113096,Cosumnes River College,CA,Sacramento,Sacramento County,06067,38.45295,-121.423108,11,1,4,2,1,1,0,4,1,California Community College System,40900,1,472,5,2,0,1,1,4,https://www.crc.losrios.edu/,https://www.crc.losrios.edu/admissions/get-started-and-apply,https://www.crc.losrios.edu/student-resources/financial-aid
113111,Crafton Hills College,CA,Yucaipa,San Bernardino County,06071,34.039178,-117.101173,41,1,4,2,1,1,0,3,1,California Community College System,40140,1,348,1,1,0,1,1,3,www.craftonhills.edu/,https://www.opencccapply.net/gateway/apply?cccMisCode=981,www.craftonhills.edu/current-students/financial-aid/index.php
113193,Cuesta College,CA,San Luis Obispo,San Luis Obispo County,06079,35.331276,-120.742235,23,1,4,2,1,1,0,3,0,-2,42020,1,-2,2,1,0,1,1,4,https://www.cuesta.edu/,https://www.cuesta.edu/admissionsaid/apply/index.html,https://www.cuesta.edu/student/studentservices/finaid/index.html
113218,Cuyamaca College,CA,El Cajon,San Diego County,06073,32.744954,-116.943507,21,1,4,2,1,1,0,3,1,California Community College System,41740,1,-2,2,1,0,1,1,3,https://www.cuyamaca.edu/,https://www.cuyamaca.edu/admissions/how-to-apply/index.php,https://www.cuyamaca.edu/financial-aid/index.php
113236,Cypress College,CA,Cypress,Orange County,06059,33.82833,-118.025143,21,1,1,4,1,1,0,4,1,California Community College System,31080,1,348,14,5,0,5,2,12,www.cypresscollege.edu/,www.cypresscollege.edu/admissions/apply-now/,www.cypresscollege.edu/financial-aid/
113333,De Anza College,CA,Cupertino,Santa Clara County,06085,37.319914,-122.045783,13,1,4,2,1,1,0,4,1,California Community College System,41940,1,488,5,2,0,2,1,5,https://www.deanza.edu/,https://www.deanza.edu/admissions/apply.html,https://www.deanza.edu/financialaid/
113449,International School of Beauty Inc,CA,Palm Desert,Riverside County,06065,33.729555,-116.403928,13,3,9,1,0,1,0,1,0,-2,40140,1,348,-2,-2,-2,-2,-2,-2,https://btyschool.com/, ,https://btyschool.com/financial-aid-program-details/
113537,Dell'Arte International School of Physical Theatre,CA,Blue Lake,Humboldt County,06023,40.880924,-123.988808,41,2,8,1,0,1,0,1,0,-2,21700,2,-2,30,0,3,0,7,18,www.dellarte.com/school,www.dellarte.com/school,www.dellarte.com/school
113573,College of the Desert,CA,Palm Desert,Riverside County,06065,33.732108,-116.388271,13,1,4,2,1,1,0,4,1,California Community College System,40140,1,348,1,1,0,1,1,4,www.collegeofthedesert.edu/,www.collegeofthedesert.edu/students/admissions/getting-started/online-application.php,www.collegeofthedesert.edu/students/fin-aid/default.php
113582,Design Institute of San Diego,CA,San Diego,San Diego County,06073,32.880926,-117.167374,11,3,3,4,1,1,1,1,0,-2,41740,1,-2,30,18,0,7,3,6,www.disd.edu/,www.disd.edu/admissions/apply,www.disd.edu/admissions-financial-aid.php
113616,Dharma Realm Buddhist University,CA,Ukiah,Mendocino County,06045,39.134532,-123.158174,33,2,2,4,1,1,1,-1,0,-2,46380,2,-2,-2,-2,-2,-2,-2,-2,https://drbu.edu/,https://drbu.edu/admissions/undergraduate/how-to-apply,https://drbu.edu/admissions/financial-aid
113634,Diablo Valley College,CA,Pleasant Hill,Contra Costa County,06013,37.968516,-122.073142,21,1,4,2,1,1,0,4,1,California Community College System,41860,1,488,1,1,0,1,1,5,https://www.dvc.edu/,https://www.dvc.edu/future/steps/index.html,https://www.dvc.edu/student-services/financial-aid/index.html
113698,Dominican University of California,CA,San Rafael,Marin County,06041,37.981279,-122.512051,13,2,2,4,1,1,1,2,0,-2,41860,1,488,19,16,8,13,4,10,https://www.dominican.edu/,https://www.dominican.edu/admissions/apply-now,https://www.dominican.edu/admissions/tuition-and-financial-aid/apply-aid
113704,Dominican School of Philosophy & Theology,CA,Berkeley,Alameda County,06001,37.881099,-122.264612,12,2,2,4,1,0,1,1,0,-2,41860,1,488,20,0,8,0,7,18,https://www.dspt.edu/,https://www.dspt.edu/how-to-apply,https://www.dspt.edu/financial-aid
113856,East Los Angeles College,CA,Monterey Park,Los Angeles County,06037,34.040531,-118.148785,21,1,4,2,1,1,0,5,1,Los Angeles Community College District,31080,1,348,2,1,0,1,1,5,www.elac.edu/,https://www.laccd.edu/Students/opencccapply/applyelac/Pages/default.aspx,https://www.elac.edu/Student-Services/Financial-Aid
113980,El Camino Community College District,CA,Torrance,Los Angeles County,06037,33.885229,-118.329913,21,1,4,2,1,1,0,4,1,California Community College System,31080,1,348,1,1,0,1,1,5,www.elcamino.edu/,www.elcamino.edu/apply/,www.elcamino.edu/admissions/finances/financial-aid/index.aspx
114114,Emperor's College of Traditional Oriental Medicine,CA,Santa Monica,Los Angeles County,06037,34.030438,-118.485119,13,3,3,4,1,0,1,1,0,-2,31080,1,348,26,0,3,0,7,18,www.emperors.edu/, ,www.emperors.edu/masters-program/financial-aid/
114123,Empire College,CA,Santa Rosa,Sonoma County,06097,38.468052,-122.729337,12,3,3,4,1,0,1,1,0,-2,42220,1,488,23,5,3,3,5,9,https://empcol.edu/, ,https://law.empcol.edu/financial-aid/
114266,Evergreen Valley College,CA,San Jose,Santa Clara County,06085,37.30167,-121.76561,11,1,4,2,1,1,0,3,1,California Community College System,41940,1,488,2,1,0,1,1,3,www.evc.edu/,www.evc.edu/future-students/apply-now,www.evc.edu/current-students/financial-aid-and-scholarships
114354,FIDM-Fashion Institute of Design & Merchandising,CA,Los Angeles,Los Angeles County,06037,34.044209,-118.25993,11,3,3,4,1,1,1,2,1,The Fashion Institute of Design and Merchandising,31080,1,348,23,5,2,15,3,9,www.fidm.edu/,fidm.edu/en/admissions/how+to+apply/,fidm.edu/en/admissions/financial+aid/
114433,Feather River Community College District,CA,Quincy,Plumas County,06063,39.953101,-120.973067,41,1,1,4,1,1,0,2,0,-2,-2,-2,-2,14,5,0,5,2,6,www.frc.edu/,https://banner.frc.edu/pls/PROD/bwskalog.P_DispLoginNon,www.frc.edu/financialaid/
114460,Federico Beauty Institute,CA,Sacramento,Sacramento County,06067,38.64883,-121.497761,21,3,9,1,0,1,0,1,0,-2,40900,1,472,-2,-2,-2,-2,-2,-2,federico.edu/, , 
114549,Fielding Graduate University,CA,Santa Barbara,Santa Barbara County,06083,34.42941,-119.717161,13,2,2,4,1,0,1,2,0,-2,42200,1,-2,17,0,18,0,7,18,www.fielding.edu/,https://fieldingportal.force.com/ERx_Forms__Portal_login,www.fielding.edu/how-to-apply/tuition-financial-aid/
114585,Five Branches University,CA,Santa Cruz,Santa Cruz County,06087,36.964348,-121.998245,22,3,3,4,1,0,1,1,0,-2,42100,1,488,26,0,3,0,7,18,www.fivebranches.edu/,www.fivebranches.edu/masters-in-tcm/admissions-masters/41,www.fivebranches.edu/masters-in-tcm/financial-aid/724
114637,Redondo Beach Beauty College,CA,Torrance,Los Angeles County,06037,33.809096,-118.35009,12,3,9,1,0,1,0,1,0,-2,31080,1,348,-2,-2,-2,-2,-2,-2,rbbeautycollege.com/,rbbeautycollege.com/,rbbeautycollege.com/
114716,Foothill College,CA,Los Altos Hills,Santa Clara County,06085,37.361655,-122.127964,21,1,1,4,1,1,0,4,1,California Community College System,41940,1,488,14,5,0,5,2,12,https://foothill.edu/,https://foothill.edu/reg/admission/apply.html,https://foothill.edu/financialaid/index.html
114734,Franciscan School of Theology,CA,San Diego,San Diego County,06073,32.770816,-117.192073,11,2,2,4,1,0,1,1,0,-2,41740,1,-2,24,0,3,0,7,18,www.fst.edu/,www.fst.edu/application-form/,www.fst.edu/admissions-aid/financial-aid/
114761,Fredrick and Charles Beauty College,CA,Eureka,Humboldt County,06023,40.798885,-124.164986,33,3,9,1,0,1,0,1,0,-2,21700,2,-2,-2,-2,-2,-2,-2,-2,www.fandcbeauty.com/, ,www.fandcbeauty.com/
114789,Fresno City College,CA,Fresno,Fresno County,06019,36.768164,-119.796096,11,1,4,2,1,1,0,5,1,California Community College System,23420,1,260,5,2,0,1,1,5,www.fresnocitycollege.edu/,https://www.fresnocitycollege.edu/admissions-aid/apply.html,www.fresnocitycollege.edu/admissions-aid/financial-aid-office/index.html
114813,Fresno Pacific University,CA,Fresno,Fresno County,06019,36.726831,-119.735199,11,2,2,4,1,1,1,2,0,-2,23420,1,260,18,16,6,11,4,12,www.fresno.edu/,apply.fresno.edu/,www.fresno.edu/students/student-financial-services
114831,Foothill-De Anza Community College District,CA,Los Altos Hills,Santa Clara County,06085,37.361664,-122.12796,21,1,0,4,1,1,0,-2,1,California Community College System,41940,1,488,-2,-2,-2,-2,-2,-2,https://www.fhda.edu/, , 
114840,Fuller Theological Seminary,CA,Pasadena,Los Angeles County,06037,34.14778,-118.140261,12,2,2,4,1,0,1,2,0,-2,31080,1,348,24,0,18,0,7,18,www.fuller.edu/,fuller.edu/Admissions/Online-Application-for-Admission/,fuller.edu/sfs/
114859,Fullerton College,CA,Fullerton,Orange County,06059,33.875514,-117.918255,21,1,4,2,1,1,0,4,1,California Community College System,31080,1,348,1,1,0,1,1,5,www.fullcoll.edu/,admissions.fullcoll.edu/online-application/,financialaid.fullcoll.edu/
114938,Gavilan College,CA,Gilroy,Santa Clara County,06085,36.972627,-121.569842,23,1,4,2,1,1,0,2,0,-2,41940,1,488,1,1,0,1,1,3,https://www.gavilan.edu/,https://www.gavilan.edu/admit/apply.php,https://www.gavilan.edu/finaid/index.php
114947,Gemological Institute of America-Carlsbad,CA,Carlsbad,San Diego County,06073,33.131313,-117.318765,12,2,8,1,0,1,0,1,0,-2,41740,1,-2,-2,-2,-2,-2,-2,-2,www.gia.edu/gem-education,www.gia.edu/gem-education,www.gia.edu/gem-education
115001,Glendale Community College,CA,Glendale,Los Angeles County,06037,34.16745,-118.227666,12,1,4,2,1,1,0,4,0,-2,31080,1,348,1,1,0,2,1,4,https://www.glendale.edu/,https://www.glendale.edu/apply/new-or-returning-students,https://www.glendale.edu/financial-aid-fees/financial-aid
115010,Glendale Career College,CA,Glendale,Los Angeles County,06037,34.149771,-118.254719,12,3,3,4,1,1,0,1,1,North-West College,31080,1,348,10,4,0,4,1,2,www.success.edu/, , 
115083,Golden Gate University,CA,San Francisco,San Francisco County,06075,37.789374,-122.398969,11,2,2,4,1,1,1,2,0,-2,41860,1,488,18,20,18,7,6,9,www.ggu.edu/,www.ggu.edu/admissions_and_costs/admissions/apply,www.ggu.edu/undergraduate/enrollment/financial-aid
115126,Golden West College,CA,Huntington Beach,Orange County,06059,33.732531,-118.002568,21,1,4,2,1,1,0,4,1,California Community College System,31080,1,348,2,1,0,1,1,4,www.goldenwestcollege.edu/,https://www.opencccapply.net/gateway/apply?cccMisCode=832,www.goldenwestcollege.edu/gwcfao/
115214,Graduate Theological Union,CA,Berkeley,Alameda County,06001,37.87554,-122.261847,12,2,2,4,1,0,1,1,0,-2,41860,1,488,24,0,13,0,7,18,www.gtu.edu/,https://gtusonis.jenzabarcloud.com/appsect.cfm,www.gtu.edu/admissions/financial-aid
115287,Grossmont-Cuyamaca Community College District,CA,El Cajon,San Diego County,06073,32.815246,-117.006277,21,1,0,2,1,1,0,-2,1,California Community College System,41740,1,-2,-2,-2,-2,-2,-2,-2,www.gcccd.edu/, , 
115296,Grossmont College,CA,El Cajon,San Diego County,06073,32.815246,-117.006277,21,1,4,2,1,1,0,4,1,California Community College System,41740,1,-2,1,1,0,1,1,4,https://www.grossmont.edu/,https://www.grossmont.edu/admissions/how-to-apply/index.php,https://www.grossmont.edu/financial-aid/index.php
115357,Salon Success Academy-Riverside,CA,Riverside,Riverside County,06065,33.943149,-117.391024,11,3,9,1,0,1,0,1,1,R & M Beauty,40140,1,348,-2,-2,-2,-2,-2,-2,www.salonsuccessacademy.com/,www.salonsuccessacademy.com/,www.salonsuccessacademy.com/
115393,Hartnell College,CA,Salinas,Monterey County,06053,36.675091,-121.666054,12,1,4,2,1,1,0,3,0,-2,41500,1,-2,1,1,0,1,1,4,www.hartnell.edu/,www.hartnell.edu/application-admission-0,www.hartnell.edu/financial_aid/
115409,Harvey Mudd College,CA,Claremont,Los Angeles County,06037,34.106515,-117.709837,21,2,2,4,1,1,0,1,0,-2,31080,1,348,21,9,0,14,2,8,https://www.hmc.edu/,https://www.hmc.edu/admission/apply/,https://www.hmc.edu/admission.html
115658,Hilltop Beauty School,CA,Daly City,San Mateo County,06081,37.705502,-122.461467,21,3,9,1,0,1,0,1,0,-2,41860,1,488,-2,-2,-2,-2,-2,-2,www.hilltopbeautyschool.com/,www.hilltopbeautyschool.com/,www.hilltopbeautyschool.com/tutionfinancial-aid/
115728,Holy Names University,CA,Oakland,Alameda County,06001,37.802276,-122.187804,11,2,2,4,1,1,1,1,0,-2,41860,1,488,20,10,6,11,4,8,www.hnu.edu/,https://community.hnu.edu/SSLPage.aspx?pid=319,www.hnu.edu/financial-aid
115746,Pacifica Graduate Institute,CA,Carpinteria,Santa Barbara County,06083,34.420881,-119.580414,41,3,3,4,1,0,1,1,0,-2,42200,1,-2,26,0,18,0,7,18,www.pacifica.edu/, , 
115755,California State Polytechnic University-Humboldt,CA,Arcata,Humboldt County,06023,40.877481,-124.078293,33,1,1,4,1,1,1,3,1,California State University,21700,2,-2,18,13,4,11,3,13,www.humboldt.edu/,https://www.calstate.edu/apply,finaid.humboldt.edu/
115773,Humphreys University-Stockton and Modesto Campuses,CA,Stockton,San Joaquin County,06077,38.011489,-121.316918,11,2,2,4,1,1,1,1,0,-2,44700,1,488,20,19,6,5,5,6,www.humphreys.edu/,https://www.humphreys.edu/apply-now/,https://www.humphreys.edu/admissions-aid/financial-aid/
115861,Imperial Valley College,CA,Imperial,Imperial County,06025,32.827209,-115.503563,41,1,4,2,1,1,0,3,1,California Community College System,20940,1,-2,1,1,0,2,1,3,www.imperial.edu/,https://www.imperial.edu/admissions-layout,www.imperial.edu/students/financial-aid-and-scholarships/
115931,Institute for Business and Technology,CA,Santa Clara,Santa Clara County,06085,37.368642,-121.969541,12,3,6,2,1,1,0,1,1,Mikhail Education Corporation,41940,1,488,10,4,0,4,1,2,https://ibt.edu/,https://ibt.edu/,https://ibt.edu/admissions/financial-aid/
116226,Interior Designers Institute,CA,Newport Beach,Orange County,06059,33.641393,-117.865722,13,3,3,4,1,1,1,1,0,-2,31080,1,348,30,18,3,5,3,6,https://www.idi.edu/,https://www.idi.edu/,https://www.idi.edu/
116350,International School of Cosmetology,CA,Los Angeles,Los Angeles County,06037,34.080053,-118.361176,11,3,9,1,0,1,0,1,0,-2,31080,1,348,-2,-2,-2,-2,-2,-2,www.toniguy.edu/, ,www.toniguy.edu/financial-aid
116439,Irvine Valley College,CA,Irvine,Orange County,06059,33.675381,-117.777539,11,1,4,2,1,1,0,4,1,California Community College System,31080,1,348,2,1,0,1,1,4,https://www.ivc.edu/,https://www.ivc.edu/admissions/get-started,https://www.ivc.edu/financial-aid
116563,Bellus Academy-El Cajon,CA,El Cajon,San Diego County,06073,32.794072,-116.94627,21,3,6,2,0,1,0,1,1,Beauty Boutique Inc.,41740,1,-2,-2,-2,-2,-2,-2,-2,www.bellusacademy.edu/, , 
116846,American Jewish University,CA,Los Angeles,Los Angeles County,06037,34.128153,-118.471706,11,2,2,4,1,1,1,1,0,-2,31080,1,348,21,10,9,11,6,8,www.aju.edu/,www.aju.edu/,www.college.aju.edu/affordability/
117052,Reedley College,CA,Reedley,Fresno County,06019,36.605428,-119.458555,32,1,4,2,1,1,0,3,1,California Community College System,23420,1,260,3,1,0,1,1,3,www.reedleycollege.edu/,https://www.reedleycollege.edu/admissions-aid/admissions/apply-now-to-rc/index.html,www.reedleycollege.edu/admissions-aid/financial-aid/index.html
117104,Life Pacific University,CA,San Dimas,Los Angeles County,06037,34.098705,-117.829388,21,2,2,4,1,1,1,1,0,-2,31080,1,348,22,15,3,11,4,8,https://www.lifepacific.edu/,https://lifepacific.edu/ca/admissions/apply/,https://lifepacific.edu/ca/admissions/financial-aid/
117140,University of La Verne,CA,La Verne,Los Angeles County,06037,34.100855,-117.773262,21,2,2,4,1,1,1,3,0,-2,31080,1,348,17,13,18,7,5,12,https://www.laverne.edu/,https://laverne.edu/apply/,https://laverne.edu/financial-aid/
117168,Laguna College of Art and Design,CA,Laguna Beach,Orange County,06059,33.561448,-117.772564,41,2,2,4,1,1,1,1,0,-2,31080,1,348,30,20,3,11,3,6,www.lcad.edu/, , 
117195,Lake Tahoe Community College,CA,South Lake Tahoe,El Dorado County,06017,38.926797,-119.972574,41,1,4,2,1,1,0,2,0,-2,40900,1,472,6,2,0,1,1,2,www.ltcc.edu/,www.opencccapply.net/uPortal/f/u66l1s1000/normal/render.uP,www.ltcc.edu/admissions/financial-aid
117238,Lancaster Beauty School,CA,Lancaster,Los Angeles County,06037,34.694914,-118.147547,21,3,9,1,0,1,0,1,0,-2,31080,1,348,-2,-2,-2,-2,-2,-2,lancasterbeautyschool.com/,lancasterbeautyschool.com/,lancasterbeautyschool.com/
117247,Laney College,CA,Oakland,Alameda County,06001,37.797257,-122.26283,11,1,4,2,1,1,0,3,1,California Community College System,41860,1,488,6,2,0,1,1,3,laney.edu/,peralta.edu/admissions/apply-enroll,laney.edu/financial_aid/
117274,Lassen Community College,CA,Susanville,Lassen County,06035,40.432053,-120.633271,41,1,4,2,1,1,0,2,1,California Community College System,45000,2,-2,2,1,0,1,1,2,www.lassencollege.edu/,www.lassencollege.edu/Pages/CCCApply.aspx,www.lassencollege.edu/student-services/financial-aid/Pages/default.aspx
117283,Latin American Bible Institute,CA,La Puente,Los Angeles County,06037,34.030992,-117.989601,21,2,2,4,1,1,0,1,0,-2,31080,1,348,24,18,0,9,2,7,labi.edu/,https://labi.populiweb.com/router/admissions/onlineapplications/index?application_form=6892,https://labi.edu/financial-aid
117520,Life Chiropractic College West,CA,Hayward,Alameda County,06001,37.638099,-122.117619,21,2,2,4,1,0,1,1,0,-2,41860,1,488,26,0,3,0,7,18,www.lifewest.edu/,apply.lifewest.edu/,www.lifewest.edu/prospective-students/financial-aid/
117557,Lincoln University,CA,Oakland,Alameda County,06001,37.804788,-122.269745,11,2,2,4,1,1,1,1,0,-2,41860,1,488,29,20,2,11,6,6,https://lincolnuca.edu/,https://apply.lincolnuca.edu/, 
117575,Southern California Seminary,CA,El Cajon,San Diego County,06073,32.799614,-116.905461,21,2,2,4,1,1,1,1,1,Shadow Mountain Ministries,41740,1,-2,22,20,8,5,6,6,www.socalsem.edu/,www.socalsem.edu/admissions/all-forms/,www.socalsem.edu/admissions/financial-aid
117627,La Sierra University,CA,Riverside,Riverside County,06065,33.910704,-117.500054,11,2,2,4,1,1,1,2,0,-2,40140,1,348,19,16,18,11,4,11,https://lasierra.edu/,https://lasierra.edu/apply/,https://lasierra.edu/sfs/
117636,Loma Linda University,CA,Loma Linda,San Bernardino County,06071,34.051241,-117.260605,21,2,2,4,1,1,1,2,0,-2,40140,1,348,16,20,18,11,6,14,www.llu.edu/index.html,www.llu.edu/central/apply/index.page,www.llu.edu/students/financial-aid/
117645,Long Beach City College,CA,Long Beach,Los Angeles County,06037,33.833593,-118.135633,11,1,4,2,1,1,0,5,1,California Community College System,31080,1,348,1,1,0,2,1,5,www.lbcc.edu/,www.opencccapply.net/cccapply-welcome?cccMisCode=841,www.lbcc.edu/financial-aid
117672,Southern California University of Health Sciences,CA,Whittier,Los Angeles County,06037,33.922966,-117.983401,21,2,2,4,1,1,1,2,0,-2,31080,1,348,26,6,3,5,6,6,https://www.scuhs.edu/,https://www.scuhs.edu/admissions/apply-now/,https://www.scuhs.edu/financial-aid/
117681,Los Angeles Community College District Office,CA,Los Angeles,Los Angeles County,06037,34.048969,-118.258047,11,1,0,4,1,1,0,-2,1,Los Angeles Community College District,31080,1,348,-2,-2,-2,-2,-2,-2,www.laccd.edu/, , 
117690,Los Angeles Harbor College,CA,Wilmington,Los Angeles County,06037,33.785825,-118.283549,11,1,4,2,1,1,0,3,1,Los Angeles Community College District,31080,1,348,2,1,0,1,1,3,https://www.lahc.edu/,https://www.laccd.edu/Students/opencccapply/applylahc/Pages/default.aspx,https://www.lahc.edu/studentservices/finaid/index.html
117706,Los Angeles Pierce College,CA,Woodland Hills,Los Angeles County,06037,34.183949,-118.575071,11,1,4,2,1,1,0,4,1,Los Angeles Community College District,31080,1,348,2,1,0,1,1,4,www.lapc.edu/,www.lapc.edu/admissions/Applyonline.asp,www.lapc.edu/financial-aid
117715,Los Angeles Southwest College,CA,Los Angeles,Los Angeles County,06037,33.929586,-118.304674,21,1,4,2,1,1,0,2,1,Los Angeles Community College District,31080,1,348,3,1,0,1,1,3,https://www.lasc.edu/,https://www.laccd.edu/Students/opencccapply/applylasc/Pages/default.aspx,https://www.lasc.edu/paying-for-college/financial-aid/index
117724,Los Angeles Trade Technical College,CA,Los Angeles,Los Angeles County,06037,34.031907,-118.269447,11,1,4,2,1,1,0,4,1,Los Angeles Community College District,31080,1,348,9,3,0,1,1,4,www.lattc.edu/,www.laccd.edu/Students/opencccapply/applylattc/Pages/default.aspx,www.lattc.edu/services/financial-aid
117733,Los Angeles Valley College,CA,Valley Glen,Los Angeles County,06037,34.175165,-118.421734,11,1,4,2,1,1,0,4,1,Los Angeles Community College District,31080,1,348,2,1,0,1,1,4,www.lavc.edu/,www.laccd.edu/Students/opencccapply/applylavc/Pages/default.aspx,www.lavc.edu/financialaid/index.html
117751,The Master's University and Seminary,CA,Santa Clarita,Los Angeles County,06037,34.381755,-118.518193,21,2,2,4,1,1,1,2,0,-2,31080,1,348,17,13,13,8,4,10,www.masters.edu/,www.masters.edu/financial-aid/undergraduate,www.masters.edu/financial-aid/
117788,Los Angeles City College,CA,Los Angeles,Los Angeles County,06037,34.087301,-118.292169,11,1,4,2,1,1,0,4,1,Los Angeles Community College District,31080,1,348,3,1,0,1,1,4,www.lacitycollege.edu/,www.laccd.edu/Students/opencccapply/applylacc/Pages/default.aspx,www.lacitycollege.edu/Admissions/Financial-Aid/Department-Home
117803,Los Angeles County College of Nursing and Allied Health,CA,Los Angeles,Los Angeles County,06037,34.062647,-118.211852,11,1,4,2,1,1,0,1,0,-2,31080,1,348,10,4,0,1,1,1,https://dhs.lacounty.gov/wps/portal/dhs/conah/,dhs.lacounty.gov/wps/portal/dhs/conah/,dhs.lacounty.gov/wps/portal/dhs/conah/
117867,Los Angeles Mission College,CA,Sylmar,Los Angeles County,06037,34.314668,-118.4195,11,1,4,2,1,1,0,3,1,Los Angeles Community College District,31080,1,348,3,1,0,1,1,3,https://www.lamission.edu/,https://www.laccd.edu/Students/opencccapply/applylamc/Pages/default.aspx,https://www.lamission.edu/Financialaid/Home.aspx
117894,Los Medanos College,CA,Pittsburg,Contra Costa County,06013,38.006474,-121.860967,21,1,4,2,1,1,0,3,1,California Community College System,41860,1,488,1,1,0,1,1,3,https://www.losmedanos.edu/,https://www.losmedanos.edu/registration/,https://www.losmedanos.edu/financialaid/
117900,Los Rios Community College District Office,CA,Sacramento,Sacramento County,06067,38.579859,-121.417145,21,1,0,2,1,1,0,-2,1,California Community College System,40900,1,472,-2,-2,-2,-2,-2,-2,www.losrios.edu/,www.losrios.edu/lrc/lrc_app.php, 
117946,Loyola Marymount University,CA,Los Angeles,Los Angeles County,06037,33.97085,-118.415744,11,2,2,4,1,1,1,4,0,-2,31080,1,348,16,10,12,15,5,14,https://www.lmu.edu/,https://admission.lmu.edu/apply/,https://financialaid.lmu.edu/
117955,Lu Ross Academy,CA,Ventura,Ventura County,06111,34.278034,-119.293952,12,3,9,1,0,1,0,1,0,-2,37100,1,348,-2,-2,-2,-2,-2,-2,www.lurossacademy.com/,www.lurossacademy.com/,www.lurossacademy.com/
118134,Lyle's College of Beauty,CA,Bakersfield,Kern County,06029,35.386539,-119.02387,11,3,9,1,0,1,0,1,0,-2,12540,1,-2,-2,-2,-2,-2,-2,-2,lylescolleges.com/, , 
118143,Lyle's College of  Beauty,CA,Fresno,Fresno County,06019,36.836265,-119.774167,11,3,9,1,0,1,0,1,0,-2,23420,1,260,-2,-2,-2,-2,-2,-2,lylescolleges.com/, , 
118161,Lytles Redwood Empire Beauty College,CA,Santa Rosa,Sonoma County,06097,38.508385,-122.75777,21,3,9,1,0,1,0,1,0,-2,42220,1,488,-2,-2,-2,-2,-2,-2,www.lytlesrebc.edu/, , 
118198,MTI College,CA,Sacramento,Sacramento County,06067,38.661377,-121.342568,21,3,6,2,1,1,0,1,0,-2,40900,1,472,8,3,0,4,1,1,www.mticollege.edu/,www.mticollege.edu/services/application/,www.mticollege.edu/services/financial-aid/
118347,College of Marin,CA,Kentfield,Marin County,06041,37.951918,-122.548758,21,1,4,2,1,1,0,2,1,California Community College System,41860,1,488,6,2,0,1,1,3,www.marin.edu/,www.marin.edu/Admissions/reginfo.htm,www.marin.edu/financial_aid/index.htm
118541,Marymount California University,CA,Rancho Palos Verdes,Los Angeles County,06037,33.734887,-118.333371,21,2,2,4,1,1,1,1,0,-2,31080,1,348,22,13,7,11,4,8,www.marymountcalifornia.edu/,www.marymountcalifornia.edu/apply-online,www.marymountcalifornia.edu/financial-aid
118684,Mendocino College,CA,Ukiah,Mendocino County,06045,39.188989,-123.228809,41,1,4,2,1,1,0,2,1,California Community College System,46380,2,-2,3,1,0,1,1,2,www.mendocino.edu/,www.opencccapply.net/uPortal/f/u63l1s1000/normal/render.uP,www.mendocino.edu/student-services/financial-aid
118693,Menlo College,CA,Atherton,San Mateo County,06081,37.453475,-122.190797,21,2,2,4,1,1,0,1,0,-2,41860,1,488,29,18,0,13,2,8,www.menlo.edu/,https://menlo.secure.force.com/form?formid=217755&tfa_3503=Web,www.menlo.edu/admissions-financial-aid/financial-aid/
118718,Merced College,CA,Merced,Merced County,06047,37.3353,-120.476464,13,1,4,2,1,1,0,4,1,California Community College System,32900,1,488,1,1,0,2,1,4,www.mccd.edu/,www.mccd.edu/getstarted/apply.html,www.mccd.edu/resources/financialaid/
118772,Merritt College,CA,Oakland,Alameda County,06001,37.789088,-122.167335,11,1,4,2,1,1,0,3,1,California Community College System,41860,1,488,6,2,0,1,1,3,www.merritt.edu/,web.peralta.edu/enrollment-2/,www.merritt.edu/wp/financial-aid/
118888,Mills College at Northeastern University,CA,Oakland,Alameda County,06001,37.781425,-122.182294,11,2,2,4,1,1,1,-2,-2,-2,41860,1,488,19,7,12,13,5,8,https://www.mills.edu/,https://admissions.mills.edu/apply,https://www.mills.edu/admission-aid/index.php
118912,MiraCosta College,CA,Oceanside,San Diego County,06073,33.190483,-117.302606,21,1,1,4,1,1,0,4,0,-2,41740,1,-2,14,5,0,5,2,12,www.miracosta.edu/,www.miracosta.edu/admissions-and-aid/new-students.html,www.miracosta.edu/student-services/financial-aid/index.html
118930,Mission College,CA,Santa Clara,Santa Clara County,06085,37.391935,-121.980783,12,1,4,2,1,1,0,3,1,California Community College System,41940,1,488,2,1,0,1,1,3,www.missioncollege.edu/,www.missioncollege.org/admissions/apply.html,missioncollege.edu/student_services/financial_aid/
118958,Modern Beauty Academy,CA,Oxnard,Ventura County,06111,34.195384,-119.181423,12,3,9,1,0,1,0,1,0,-2,37100,1,348,-2,-2,-2,-2,-2,-2,www.modernbeautyacademy.org/,www.modernbeautyacademy.org/,www.modernbeautyacademy.org/
118976,Modesto Junior College,CA,Modesto,Stanislaus County,06099,37.651056,-121.009792,12,1,1,4,1,1,0,4,1,California Community College System,33700,1,488,14,5,0,5,2,12,https://www.mjc.edu/,https://www.mjc.edu/studentservices/enrollment/admissions/applyforadmission.php,https://www.mjc.edu/studentservices/finaid/
118994,Moler Barber College,CA,Oakland,Alameda County,06001,37.827075,-122.265352,11,3,9,1,0,1,0,1,0,-2,41860,1,488,-2,-2,-2,-2,-2,-2,moler.org/,moler.org/,moler.org/
119058,Middlebury Institute of International Studies at Monterey,CA,Monterey,Monterey County,06053,36.599736,-121.897325,22,2,2,4,1,1,1,1,1,Middlebury College,41500,1,-2,18,8,4,11,6,6,https://www.middlebury.edu/institute/,https://miis.force.com/application/tx_communitieshome,https://www.middlebury.edu/institute/admissions/financial-aid
119067,Monterey Peninsula College,CA,Monterey,Monterey County,06053,36.590558,-121.884931,22,1,4,2,1,1,0,3,1,California Community College System,41500,1,-2,2,1,0,1,1,3,www.mpc.edu/,www.mpc.edu/admissions/apply-to-mpc/u-s-based-students,www.mpc.edu/financial-aid
119137,Moorpark College,CA,Moorpark,Ventura County,06111,34.301146,-118.834528,22,1,4,2,1,1,0,4,1,California Community College System,37100,1,348,1,1,0,1,1,4,www.moorparkcollege.edu/index.shtml,www.moorparkcollege.edu/apply-and-enroll/apply-for-admission,www.moorparkcollege.edu/services_for_students/financial_aid/index.shtml
119164,Mt San Antonio College,CA,Walnut,Los Angeles County,06037,34.047764,-117.846629,21,1,4,2,1,1,0,5,0,-2,31080,1,348,4,2,0,1,1,5,www.mtsac.edu/,www.mtsac.edu/admissions/apply-now.html,www.mtsac.edu/financialaid/
119173,Mount Saint Mary's University,CA,Los Angeles,Los Angeles County,06037,34.085315,-118.482879,11,2,2,4,1,1,1,2,0,-2,31080,1,348,18,16,8,7,5,10,https://www.msmu.edu/,https://www.msmu.edu/admission/undergraduate-admission/application-instructions/,https://www.msmu.edu/academics/financial-aid/
119216,Mt San Jacinto Community College District,CA,San Jacinto,Riverside County,06065,33.806748,-116.971169,22,1,4,2,1,1,0,4,1,California Community College System,40140,1,348,4,2,0,1,1,4,www.msjc.edu/,www.msjc.edu/Apply/Pages/default.aspx, 
119270,Musicians Institute,CA,Hollywood,Los Angeles County,06037,34.101265,-118.337582,11,3,3,4,1,1,1,1,1,Campus Hollywood,31080,1,348,30,6,0,9,2,6,www.mi.edu/,https://www.mi.edu/admissions/,https://www.mi.edu/admissions/financial-aid/
119331,Napa Valley College,CA,Napa,Napa County,06055,38.274081,-122.274381,13,1,4,2,1,1,0,2,1,California Community College System,34900,1,488,1,1,0,2,1,3,https://www.napavalley.edu/Pages/default.aspx,https://www.opencccapply.net/gateway/apply?cccMisCode=241FA3ECDED6EEA73162EEA36762D94,https://www.napavalley.edu/studentaffairs/FinancialAid/Pages/default.aspx
119553,National Holistic Institute,CA,Emeryville,Alameda County,06001,37.841898,-122.287672,21,3,9,1,0,1,0,2,0,-2,41860,1,488,-2,-2,-2,-2,-2,-2,www.nhi.edu/,nhi.edu/how-to-become-a-massage-therapist/admissions-enrollment,nhi.edu/how-to-become-a-massage-therapist/tuition-financial-aid/
119605,National University,CA,San Diego,San Diego County,06073,32.829299,-117.127296,11,2,2,4,1,1,1,4,1,National University System,41740,1,-2,18,16,4,5,6,15,www.nu.edu/,www.nu.edu/Admissions/ApplyOnline.html,www.nu.edu/Admissions/Financial-Aid-and-Scholarships.html
119678,Naval Postgraduate School,CA,Monterey,Monterey County,06053,36.597159,-121.874248,22,1,1,4,1,0,1,2,0,-2,41500,1,-2,18,0,17,0,7,18,https://www.nps.edu/,my.nps.edu/web/admissions/apply1, 
119775,Newschool of Architecture and Design,CA,San Diego,San Diego County,06073,32.71331,-117.153305,11,3,3,4,1,1,1,1,0,-2,41740,1,-2,20,20,8,11,4,6,www.newschoolarch.edu/,my.newschoolarch.edu/apply/User/Login.aspx,newschoolarch.edu/admissions/financial-aid/
119951,North Adrian's College of Beauty Inc,CA,Modesto,Stanislaus County,06099,37.677778,-120.992753,12,3,9,1,0,1,0,1,0,-2,33700,1,488,-2,-2,-2,-2,-2,-2,www.adrians.edu/,www.adrians.edu/,www.adrians.edu/
120023,North Orange County Community College District,CA,Anaheim,Orange County,06059,33.850118,-117.945394,11,1,0,4,1,1,0,-2,1,California Community College System,31080,1,348,-2,-2,-2,-2,-2,-2,www.nocccd.edu/, , 
120069,North-West College-Pomona,CA,Pomona,Los Angeles County,06037,34.062043,-117.751227,21,3,9,1,0,1,0,1,1,North-West College,31080,1,348,-2,-2,-2,-2,-2,-2,www.north-westcollege.edu/, , 
120078,North-West College-West Covina,CA,West Covina,Los Angeles County,06037,34.072071,-117.949583,21,3,6,2,1,1,0,1,1,North-West College,31080,1,348,10,4,0,4,1,2,https://www.nw.edu/locations/west-covina-campus/,https://www.nw.edu/apply-online/,https://www.nw.edu/getting-started/financial-aid/
120087,North-West College-Van Nuys,CA,Van Nuys,Los Angeles County,06037,34.189497,-118.450184,11,3,9,1,0,1,0,1,1,North-West College,31080,1,348,-2,-2,-2,-2,-2,-2,www.north-westcollege.edu/, , 
120166,San Francisco Bay University,CA,Fremont,Alameda County,06001,37.485056,-121.927899,21,2,2,4,1,1,1,1,0,-2,41860,1,488,28,11,8,14,6,8,https://www.sfbu.edu/,https://my.sfbu.edu/Account/Logon?enc=td2nmreLJyypG4lX9oxb4loYfZujQFCgHQ8+m5OArT2gsrXBWqLJa/xG1l8vBXie&AspxAutoDetectCookieSupport=1,https://www.sfbu.edu/admissions/tuition
120184,Notre Dame de Namur University,CA,Belmont,San Mateo County,06081,37.517111,-122.284794,21,2,2,4,1,1,1,1,0,-2,41860,1,488,19,10,13,6,6,7,www.ndnu.edu/,www.ndnu.edu/apply/,www.ndnu.edu/financial-aid/
120254,Occidental College,CA,Los Angeles,Los Angeles County,06037,34.127124,-118.210908,11,2,2,4,1,1,1,2,0,-2,31080,1,348,21,6,0,14,2,11,https://www.oxy.edu/,https://www.oxy.edu/admission-aid/apply,https://www.oxy.edu/admission-aid/financial-aid
120290,Ohlone College,CA,Fremont,Alameda County,06001,37.529931,-121.911795,21,1,4,2,1,1,0,3,0,-2,41860,1,488,8,3,0,1,1,4,www.ohlone.edu/,www.ohlone.edu/org/admissions/,www.ohlone.edu/org/finaid/
120342,Orange Coast College,CA,Costa Mesa,Orange County,06059,33.66927,-117.909086,12,1,4,2,1,1,0,4,1,California Community College System,31080,1,348,1,1,0,1,1,5,www.orangecoastcollege.edu/,https://prod.orangecoastcollege.edu/admissions-aid/enrollment/admissions/,www.orangecoastcollege.edu/student_services/financial_aid/
120403,Otis College of Art and Design,CA,Los Angeles,Los Angeles County,06037,33.956607,-118.416615,11,2,2,4,1,1,1,2,0,-2,31080,1,348,30,14,8,11,3,10,www.otis.edu/,www.otis.edu/how-apply,www.otis.edu/finaid
120421,Oxnard College,CA,Oxnard,Ventura County,06111,34.166104,-119.157604,12,1,4,2,1,1,0,3,1,California Community College System,37100,1,348,1,1,0,1,1,3,www.oxnardcollege.edu/,www.oxnardcollege.edu/departments/student-services/admissions-and-records/apply-for-admission,www.oxnardcollege.edu/departments/student_services/financial_aid/index.shtml
120537,Hope International University,CA,Fullerton,Orange County,06059,33.87616,-117.88573,21,2,2,4,1,1,1,2,0,-2,31080,1,348,19,16,11,11,5,10,www.hiu.edu/,www.hiu.edu/apply/,www.hiu.edu/undergrad/finaid/
120661,Concorde Career College-San Diego,CA,San Diego,San Diego County,06073,32.702814,-117.102845,11,3,6,2,1,1,0,1,1,Concorde Career Colleges Inc.,41740,1,-2,10,4,0,4,1,2,https://www.concorde.edu/campus/san-diego-california,https://www.concorde.edu/campus/san-diego-california,https://www.concorde.edu/admissions/financial-aid
